[
  {
    "type": "node",
    "id": 12351651,
    "lat": 51.3760611,
    "lon": 12.3841998,
    "tags": {
      "bus": "yes",
      "local_ref": "0612",
      "name": "Delitzscher/Essener Straße",
      "network": "Mitteldeutscher Verkehrsverbund",
      "operator": "Leipziger Verkehrsbetriebe",
      "public_transport": "stop_position"
    }
  },
  {
    "type": "node",
    "id": 25279722,
    "lat": 51.3593178,
    "lon": 12.4162843,
    "tags": {
      "bus": "yes",
      "name": "Ossietzky-/Gorkistraße",
      "network": "MDV",
      "operator": "LVB",
      "public_transport": "stop_position"
    }
  },
  {
    "type": "node",
    "id": 25455896,
    "lat": 51.2791274,
    "lon": 12.3960975,
    "tags": {
      "bus": "yes",
      "name": "Markkleeberg, Virchowstraße",
      "network": "Mitteldeutscher Verkehrsverbund",
      "network:short": "MDV",
      "network:wikidata": "Q1742463",
      "operator": "Leipziger Verkehrsbetriebe",
      "public_transport": "stop_position",
      "railway": "tram_stop",
      "ref": "0181",
      "ref_name": "Virchowstr., Markkleeberg",
      "tactile_paving": "no",
      "tram": "yes",
      "wheelchair": "no"
    }
  },
  {
    "type": "node",
    "id": 25983636,
    "lat": 51.3751971,
    "lon": 12.4825173,
    "tags": {
      "bus": "yes",
      "name": "Taucha, Theodor-Körner-Straße",
      "network": "Mitteldeutscher Verkehrsverbund",
      "operator": "Leipziger Verkehrsbetriebe",
      "public_transport": "stop_position",
      "tactile_paving": "no"
    }
  },
  {
    "type": "node",
    "id": 26080888,
    "lat": 51.3401739,
    "lon": 12.349587,
    "tags": {
      "name": "Sportforum Süd",
      "network": "Mitteldeutscher Verkehrsverbund",
      "network:short": "MDV",
      "network:wikidata": "Q1742463",
      "passenger_information_display": "yes",
      "passenger_information_display:speech_output": "no",
      "public_transport": "stop_position",
      "railway": "tram_stop",
      "ref": "0246",
      "tram": "yes",
      "wheelchair": "yes"
    }
  },
  {
    "type": "node",
    "id": 26080893,
    "lat": 51.3378378,
    "lon": 12.3408778,
    "tags": {
      "name": "Angerbrücke, Straßenbahnhof",
      "network": "Mitteldeutscher Verkehrsverbund",
      "network:short": "MDV",
      "network:wikidata": "Q1742463",
      "passenger_information_display": "yes",
      "passenger_information_display:speech_output": "no",
      "public_transport": "stop_position",
      "railway": "tram_stop",
      "ref": "0247",
      "tram": "yes",
      "wheelchair": "yes"
    }
  },
  {
    "type": "node",
    "id": 27544513,
    "lat": 51.3435286,
    "lon": 12.3667852,
    "tags": {
      "bus": "yes",
      "name": "Leibnizstraße",
      "network": "Mitteldeutscher Verkehrsverbund",
      "network:wikidata": "Q1742463",
      "network:wikipedia": "de:Mitteldeutscher Verkehrsverbund",
      "operator": "Leipziger Verkehrsbetriebe",
      "public_transport": "stop_position",
      "ref": "0244",
      "wheelchair": "yes"
    }
  },
  {
    "type": "node",
    "id": 29862550,
    "lat": 51.3484731,
    "lon": 12.4202241,
    "tags": {
      "name": "Volksgarten",
      "network": "Mitteldeutscher Verkehrsverbund",
      "network:short": "MDV",
      "network:wikidata": "Q1742463",
      "public_transport": "stop_position",
      "railway": "tram_stop",
      "ref": "0051",
      "tram": "yes",
      "wheelchair": "yes"
    }
  },
  {
    "type": "node",
    "id": 30220499,
    "lat": 51.3832494,
    "lon": 12.3817828,
    "tags": {
      "bus": "yes",
      "description": "SEV-Haltestelle",
      "lit": "yes",
      "name": "Klinikum St. Georg",
      "network": "Mitteldeutscher Verkehrsverbund",
      "operator": "Leipziger Verkehrsbetriebe",
      "public_transport": "stop_position",
      "ref": "0411",
      "tactile_paving": "yes"
    }
  },
  {
    "type": "node",
    "id": 31901647,
    "lat": 51.3176029,
    "lon": 12.3783822,
    "tags": {
      "bus": "yes",
      "name": "Steinplatz",
      "network": "Mitteldeutscher Verkehrsverbund",
      "operator": "Leipziger Verkehrsbetriebe",
      "public_transport": "stop_position",
      "ref": "0167",
      "tactile_paving": "no"
    }
  },
  {
    "type": "node",
    "id": 59843729,
    "lat": 51.3498896,
    "lon": 12.3776953,
    "tags": {
      "name": "Wilhelm-Liebknecht-Platz",
      "network": "Mitteldeutscher Verkehrsverbund",
      "network:short": "MDV",
      "network:wikidata": "Q1742463",
      "public_transport": "stop_position",
      "railway": "tram_stop",
      "ref": "0013",
      "tram": "yes",
      "wheelchair": "yes"
    }
  },
  {
    "type": "node",
    "id": 59958337,
    "lat": 51.3246955,
    "lon": 12.294759,
    "tags": {
      "name": "Parkallee",
      "network": "Mitteldeutscher Verkehrsverbund",
      "network:short": "MDV",
      "network:wikidata": "Q1742463",
      "public_transport": "stop_position",
      "railway": "tram_stop",
      "ref": "0285",
      "tram": "yes",
      "wheelchair": "yes"
    }
  },
  {
    "type": "node",
    "id": 59958382,
    "lat": 51.323038,
    "lon": 12.2885817,
    "tags": {
      "name": "Schönauer Ring",
      "network": "Mitteldeutscher Verkehrsverbund",
      "network:short": "MDV",
      "network:wikidata": "Q1742463",
      "operator": "Leipziger Verkehrsbetriebe",
      "public_transport": "stop_position",
      "railway": "tram_stop",
      "tram": "yes",
      "wheelchair": "yes"
    }
  },
  {
    "type": "node",
    "id": 60671950,
    "lat": 51.3066674,
    "lon": 12.2620233,
    "tags": {
      "bus": "yes",
      "name": "Lausen",
      "network": "Mitteldeutscher Verkehrverbund",
      "operator": "Leipziger Verkehrsbetriebe",
      "public_transport": "stop_position",
      "ref": "222"
    }
  },
  {
    "type": "node",
    "id": 60822530,
    "lat": 51.3748725,
    "lon": 12.4127538,
    "tags": {
      "name": "Mockau, Post",
      "network": "Mitteldeutscher Verkehrsverbund",
      "network:short": "MDV",
      "network:wikidata": "Q1742463",
      "public_transport": "stop_position",
      "railway": "tram_stop",
      "ref": "0023",
      "tram": "yes",
      "wheelchair": "limited"
    }
  },
  {
    "type": "node",
    "id": 87025384,
    "lat": 51.3691124,
    "lon": 12.3765857,
    "tags": {
      "bus": "yes",
      "name": "Gottschallstraße",
      "network": "Mitteldeutscher Verkehrsverbund",
      "operator": "Leipziger Verkehrsbetriebe",
      "public_transport": "stop_position"
    }
  },
  {
    "type": "node",
    "id": 105897348,
    "lat": 51.3256634,
    "lon": 12.4008441,
    "tags": {
      "bus": "yes",
      "name": "Technisches Rathaus",
      "network": "Mitteldeutscher Verkehrsverbund",
      "network:wikidata": "Q1742463",
      "operator": "Leipziger Verkehrsbetriebe",
      "public_transport": "stop_position",
      "ref": "0123"
    }
  },
  {
    "type": "node",
    "id": 105897405,
    "lat": 51.3233481,
    "lon": 12.3963082,
    "tags": {
      "name": "Deutsche Nationalbibliothek",
      "network": "Mitteldeutscher Verkehrsverbund",
      "network:short": "MDV",
      "network:wikidata": "Q1742463",
      "operator": "Leipziger Verkehrsbetriebe",
      "public_transport": "stop_position",
      "railway": "tram_stop",
      "ref": "0141",
      "tactile_paving": "no",
      "tram": "yes",
      "wheelchair": "no"
    }
  },
  {
    "type": "node",
    "id": 117167856,
    "lat": 51.2957083,
    "lon": 12.3965163,
    "tags": {
      "name": "Lößnig",
      "network": "Mitteldeutscher Verkehrsverbund",
      "network:short": "MDV",
      "network:wikidata": "Q1742463",
      "operator": "Leipziger Verkehrsbetriebe",
      "public_transport": "stop_position",
      "railway": "tram_stop",
      "ref": "0159",
      "tram": "yes",
      "wheelchair": "yes"
    }
  },
  {
    "type": "node",
    "id": 118087121,
    "lat": 51.3248322,
    "lon": 12.3736515,
    "tags": {
      "name": "Südplatz",
      "network": "Mitteldeutscher Verkehrsverbund",
      "network:short": "MDV",
      "network:wikidata": "Q1742463",
      "operator": "LVB",
      "public_transport": "stop_position",
      "railway": "tram_stop",
      "ref": "0169",
      "tram": "yes",
      "wheelchair": "yes"
    }
  },
  {
    "type": "node",
    "id": 123900738,
    "lat": 51.3439179,
    "lon": 12.3801743,
    "tags": {
      "bus": "yes",
      "departures_board": "realtime",
      "description": "Hauptbahnhof, Steig D",
      "highway": "bus_stop",
      "local_ref": "D",
      "name": "Hauptbahnhof",
      "name:ja": "中央駅",
      "network": "Mitteldeutscher Verkehrsverbund",
      "network:short": "MDV",
      "network:wikidata": "Q1742463",
      "network:wikipedia": "de:Mitteldeutscher Verkehrsverbund",
      "operator": "LVB",
      "passenger_information_display": "yes",
      "public_transport": "stop_position",
      "railway": "tram_stop",
      "ref": "D",
      "toilets:wheelchair": "yes",
      "tram": "yes",
      "uic_ref": "956291",
      "wheelchair": "yes"
    }
  },
  {
    "type": "node",
    "id": 130106006,
    "lat": 51.3521983,
    "lon": 12.4269886
  },
  {
    "type": "node",
    "id": 130106007,
    "lat": 51.3538059,
    "lon": 12.4302822,
    "tags": {
      "name": "Schwantesstraße",
      "network": "Mitteldeutscher Verkehrsverbund",
      "network:short": "MDV",
      "network:wikidata": "Q1742463",
      "public_transport": "stop_position",
      "railway": "tram_stop",
      "ref": "0164",
      "tram": "yes",
      "wheelchair": "yes"
    }
  },
  {
    "type": "node",
    "id": 175939899,
    "lat": 51.335856,
    "lon": 12.3755928,
    "tags": {
      "bus": "yes",
      "name": "Wilhelm-Leuschner-Platz",
      "network": "Mitteldeutscher Verkehrsverbund",
      "network:short": "MDV",
      "network:wikidata": "Q1742463",
      "passenger_information_display": "yes",
      "public_transport": "stop_position",
      "railway": "tram_stop",
      "ref": "0007",
      "tram": "yes",
      "wheelchair": "yes"
    }
  },
  {
    "type": "node",
    "id": 178505962,
    "lat": 51.3356195,
    "lon": 12.3785563,
    "tags": {
      "name": "Roßplatz",
      "network": "Mitteldeutscher Verkehrsverbund",
      "network:short": "MDV",
      "network:wikidata": "Q1742463",
      "passenger_information_display": "yes",
      "public_transport": "stop_position",
      "railway": "tram_stop",
      "ref": "0008",
      "shelter": "yes",
      "tram": "yes",
      "wheelchair": "yes"
    }
  },
  {
    "type": "node",
    "id": 178856492,
    "lat": 51.3748803,
    "lon": 12.3784417,
    "tags": {
      "name": "Gohlis-Nord",
      "network": "Mitteldeutscher Verkehrsverbund",
      "network:short": "MDV",
      "network:wikidata": "Q1742463",
      "operator": "Leipziger Verkehrsbetriebe",
      "public_transport": "stop_position",
      "railway": "tram_stop",
      "ref": "0361",
      "tram": "yes",
      "wheelchair": "no"
    }
  },
  {
    "type": "node",
    "id": 178860143,
    "lat": 51.3683126,
    "lon": 12.3860801,
    "tags": {
      "name": "Eutritzscher Markt",
      "network": "Mitteldeutscher Verkehrsverbund",
      "network:short": "MDV",
      "network:wikidata": "Q1742463",
      "operator": "Leipziger Verkehrsbetriebe",
      "public_transport": "stop_position",
      "railway": "tram_stop",
      "ref": "0407",
      "tram": "yes",
      "wheelchair": "yes"
    }
  },
  {
    "type": "node",
    "id": 192025526,
    "lat": 51.3602732,
    "lon": 12.4432129,
    "tags": {
      "bus": "yes",
      "name": "Hohentichelnstraße",
      "public_transport": "stop_position"
    }
  },
  {
    "type": "node",
    "id": 199811337,
    "lat": 51.3342835,
    "lon": 12.3781051,
    "tags": {
      "bus": "yes",
      "name": "Roßplatz",
      "network": "Mitteldeutscher Verkehrsverbund",
      "operator": "Leipziger Verkehrsbetriebe",
      "public_transport": "stop_position",
      "ref": "0008",
      "shelter": "no",
      "tactile_paving": "no",
      "wheelchair": "no"
    }
  },
  {
    "type": "node",
    "id": 206251443,
    "lat": 51.3229983,
    "lon": 12.3937994,
    "tags": {
      "name": "Deutsche Nationalbibliothek",
      "network": "Mitteldeutscher Verkehrsverbund",
      "network:short": "MDV",
      "network:wikidata": "Q1742463",
      "operator": "Leipziger Verkehrsbetriebe",
      "public_transport": "stop_position",
      "railway": "tram_stop",
      "ref": "0141",
      "shelter": "yes",
      "tram": "yes",
      "wheelchair": "yes"
    }
  },
  {
    "type": "node",
    "id": 206251460,
    "lat": 51.3179074,
    "lon": 12.3947459,
    "tags": {
      "name": "An den Tierkliniken",
      "network": "Mitteldeutscher Verkehrsverbund",
      "network:short": "MDV",
      "network:wikidata": "Q1742463",
      "public_transport": "stop_position",
      "railway": "tram_stop",
      "ref": "0155",
      "tram": "yes",
      "wheelchair": "yes"
    }
  },
  {
    "type": "node",
    "id": 206335432,
    "lat": 51.3147963,
    "lon": 12.374472,
    "tags": {
      "bus": "yes",
      "name": "Richard-Lehmann-Straße, HTWK",
      "name:ja": "リヒャルト・レーマン通り, HTWK",
      "network": "Mitteldeutscher Verkehrsverbund",
      "operator": "Leipziger Verkehrsbetriebe",
      "public_transport": "stop_position",
      "ref": "0171",
      "tactile_paving": "no",
      "wheelchair": "no"
    }
  },
  {
    "type": "node",
    "id": 211244023,
    "lat": 51.3390985,
    "lon": 12.3629202,
    "tags": {
      "name": "Westplatz",
      "network": "Mitteldeutscher Verkehrsverbund",
      "network:short": "MDV",
      "network:wikidata": "Q1742463",
      "public_transport": "stop_position",
      "railway": "tram_stop",
      "ref": "0205",
      "shelter": "yes",
      "tram": "yes",
      "wheelchair": "yes"
    }
  },
  {
    "type": "node",
    "id": 211253842,
    "lat": 51.3649959,
    "lon": 12.3844913,
    "tags": {
      "name": "Eutritzscher Zentrum",
      "network": "Mitteldeutscher Verkehrsverbund",
      "network:short": "MDV",
      "network:wikidata": "Q1742463",
      "operator": "Leipziger Verkehrsbetriebe",
      "public_transport": "stop_position",
      "railway": "tram_stop",
      "ref": "0396",
      "tactile_paving": "yes",
      "tram": "yes",
      "wheelchair": "yes"
    }
  },
  {
    "type": "node",
    "id": 229417493,
    "lat": 51.3375909,
    "lon": 12.33386,
    "tags": {
      "bus": "yes",
      "name": "Lindenauer Markt",
      "network": "Mitteldeutscher Verkehrsverbund",
      "network:short": "MDV",
      "network:wikidata": "Q1742463",
      "operator": "LVB",
      "public_transport": "stop_position",
      "railway": "tram_stop",
      "ref": "0278",
      "tram": "yes",
      "wheelchair": "yes"
    }
  },
  {
    "type": "node",
    "id": 240476957,
    "lat": 51.3676681,
    "lon": 12.4606788,
    "tags": {
      "bus": "yes",
      "local_ref": "0057",
      "name": "Portitzer Allee, S-Bahnhof Heiterblick",
      "network": "Mitteldeutscher Verkehrsverbund",
      "operator": "Leipziger Verkehrsbetriebe",
      "public_transport": "stop_position",
      "ref": "0057"
    }
  },
  {
    "type": "node",
    "id": 240488708,
    "lat": 51.3597638,
    "lon": 12.4430674,
    "tags": {
      "bus": "yes",
      "highway": "bus_stop",
      "name": "Hohentichelnstraße",
      "network": "Mitteldeutscher Verkehrsverbund",
      "network:short": "MDV",
      "network:wikidata": "Q1742463",
      "operator": "Leipziger Verkehrsbetriebe",
      "public_transport": "stop_position",
      "ref": "0066"
    }
  },
  {
    "type": "node",
    "id": 243879325,
    "lat": 51.3213986,
    "lon": 12.4040955,
    "tags": {
      "bus": "yes",
      "name": "Altes Messegelände",
      "network": "Mitteldeutscher Verkehrsverbund",
      "network:short": "MDV",
      "network:wikidata": "Q1742463",
      "public_transport": "stop_position",
      "railway": "tram_stop",
      "ref": "0124",
      "tram": "yes",
      "wheelchair": "yes"
    }
  },
  {
    "type": "node",
    "id": 243879340,
    "lat": 51.3318794,
    "lon": 12.3955445,
    "tags": {
      "name": "Ostplatz",
      "network": "Mitteldeutscher Verkehrsverbund",
      "network:short": "MDV",
      "network:wikidata": "Q1742463",
      "operator": "Leipziger Verkehrsbetriebe",
      "public_transport": "stop_position",
      "railway": "tram_stop",
      "ref": "0121",
      "shelter": "yes",
      "tram": "yes",
      "wheelchair": "yes"
    }
  },
  {
    "type": "node",
    "id": 248036131,
    "lat": 51.3271497,
    "lon": 12.3890812,
    "tags": {
      "name": "Johannisallee",
      "public_transport": "stop_position",
      "railway": "tram_stop",
      "tram": "yes",
      "wheelchair": "yes"
    }
  },
  {
    "type": "node",
    "id": 248048202,
    "lat": 51.3347018,
    "lon": 12.3915172,
    "tags": {
      "name": "Gutenbergplatz",
      "network": "Mitteldeutscher Verkehrsverbund",
      "network:short": "MDV",
      "network:wikidata": "Q1742463",
      "public_transport": "stop_position",
      "railway": "tram_stop",
      "ref": "0120",
      "shelter": "yes",
      "tram": "yes",
      "wheelchair": "yes"
    }
  },
  {
    "type": "node",
    "id": 248052217,
    "lat": 51.3433473,
    "lon": 12.3656142,
    "tags": {
      "name": "Leibnizstraße",
      "network": "Mitteldeutscher Verkehrsverbund",
      "network:short": "MDV",
      "network:wikidata": "Q1742463",
      "network:wikipedia": "de:Mitteldeutscher Verkehrsverbund",
      "operator": "Leipziger Verkehrsbetriebe",
      "passenger_information_display": "yes",
      "passenger_information_display:speech_output": "no",
      "public_transport": "stop_position",
      "railway": "tram_stop",
      "ref": "0244",
      "source:name": "survey",
      "source:ref": "survey",
      "tram": "yes",
      "wheelchair": "yes"
    }
  },
  {
    "type": "node",
    "id": 248455299,
    "lat": 51.3433853,
    "lon": 12.3839231,
    "tags": {
      "alt_name": "Wintergartenstraße/Hauptbahnhof Gleis 7",
      "local_ref": "G",
      "name": "Hauptbahnhof, Wintergartenstraße",
      "network": "Mitteldeutscher Verkehrsverbund",
      "network:short": "MDV",
      "network:wikidata": "Q1742463",
      "old_name": "Wintergartenstraße/Hauptbahnhof",
      "operator": "Leipziger Verkehrsbetriebe",
      "passenger_information_display": "yes",
      "public_transport": "stop_position",
      "railway": "tram_stop",
      "ref": "0010",
      "source:ref": "survey",
      "tram": "yes",
      "uic_ref": "955524",
      "wheelchair": "yes"
    }
  },
  {
    "type": "node",
    "id": 248738849,
    "lat": 51.3650222,
    "lon": 12.3857257,
    "tags": {
      "bus": "yes",
      "name": "Eutritzscher Zentrum",
      "network": "Mitteldeutscher Verkehrsverbund",
      "operator": "Leipziger Verkehrsbetriebe",
      "public_transport": "stop_position",
      "railway": "tram_stop",
      "tactile_paving": "yes",
      "tram": "yes"
    }
  },
  {
    "type": "node",
    "id": 249279868,
    "lat": 51.3278677,
    "lon": 12.3085065,
    "tags": {
      "name": "Saarländer Straße",
      "network": "Mitteldeutscher Verkehrsverbund",
      "network:short": "MDV",
      "network:wikidata": "Q1742463",
      "public_transport": "stop_position",
      "railway": "tram_stop",
      "ref": "0502",
      "source:name": "survey",
      "source:ref": "survey",
      "tram": "yes",
      "wheelchair": "yes"
    }
  },
  {
    "type": "node",
    "id": 250534982,
    "lat": 51.3013824,
    "lon": 12.3962741,
    "tags": {
      "name": "Moritz Hof",
      "network": "Mitteldeutscher Verkehrsverbund",
      "network:short": "MDV",
      "network:wikidata": "Q1742463",
      "operator": "Leipziger Verkehrsbetriebe",
      "public_transport": "stop_position",
      "railway": "tram_stop",
      "ref": "0158",
      "tram": "yes",
      "wheelchair": "yes"
    }
  },
  {
    "type": "node",
    "id": 250535860,
    "lat": 51.3138444,
    "lon": 12.3946274,
    "tags": {
      "name": "Richard-Lehmann-/Zwickauer Straße",
      "network": "Mitteldeutscher Verkehrsverbund",
      "network:short": "MDV",
      "network:wikidata": "Q1742463",
      "operator": "Leipziger Verkehrsbetriebe",
      "public_transport": "stop_position",
      "railway": "tram_stop",
      "ref": "0144",
      "tram": "yes",
      "wheelchair": "yes"
    }
  },
  {
    "type": "node",
    "id": 250544028,
    "lat": 51.3356302,
    "lon": 12.3709363,
    "tags": {
      "bus": "yes",
      "name": "Neues Rathaus",
      "network": "Mitteldeutscher Verkehrsverbund",
      "network:short": "MDV",
      "network:wikidata": "Q1742463",
      "network:wikipedia": "de:Mitteldeutscher Verkehrsverbund",
      "operator": "Leipziger Verkehrsbetriebe",
      "public_transport": "stop_position",
      "railway": "tram_stop",
      "ref": "0005",
      "tram": "yes",
      "wheelchair": "yes"
    }
  },
  {
    "type": "node",
    "id": 250566446,
    "lat": 51.3087675,
    "lon": 12.2710293,
    "tags": {
      "name": "Krakauer Straße",
      "network": "Mitteldeutscher Verkehrsverbund",
      "network:short": "MDV",
      "network:wikidata": "Q1742463",
      "operator": "Leipziger Verkehrsbetriebe",
      "public_transport": "stop_position",
      "railway": "tram_stop",
      "ref": "0220",
      "tram": "yes"
    }
  },
  {
    "type": "node",
    "id": 250566452,
    "lat": 51.3115561,
    "lon": 12.2819539,
    "tags": {
      "name": "Ratzelbogen",
      "network": "Mitteldeutscher Verkehrsverbund",
      "network:short": "MDV",
      "network:wikidata": "Q1742463",
      "public_transport": "stop_position",
      "railway": "tram_stop",
      "ref": "0218",
      "tram": "yes",
      "wheelchair": "yes"
    }
  },
  {
    "type": "node",
    "id": 250566457,
    "lat": 51.3133065,
    "lon": 12.2933519,
    "tags": {
      "name": "Stuttgarter Allee",
      "network": "Mitteldeutscher Verkehrsverbund",
      "network:short": "MDV",
      "network:wikidata": "Q1742463",
      "public_transport": "stop_position",
      "railway": "tram_stop",
      "ref": "0217",
      "source:name": "survey",
      "source:ref": "survey",
      "tram": "yes",
      "wheelchair": "yes"
    }
  },
  {
    "type": "node",
    "id": 250734121,
    "lat": 51.3091963,
    "lon": 12.39632,
    "tags": {
      "name": "Triftweg",
      "network": "Mitteldeutscher Verkehrsverbund",
      "network:short": "MDV",
      "network:wikidata": "Q1742463",
      "operator": "LVB",
      "public_transport": "stop_position",
      "railway": "tram_stop",
      "ref": "0156",
      "tram": "yes",
      "wheelchair": "yes"
    }
  },
  {
    "type": "node",
    "id": 250734125,
    "lat": 51.3057206,
    "lon": 12.3963446,
    "tags": {
      "name": "An der Märchenwiese",
      "network": "Mitteldeutscher Verkehrsverbund",
      "network:short": "MDV",
      "network:wikidata": "Q1742463",
      "operator": "Leipziger Verkehrsbetriebe",
      "public_transport": "stop_position",
      "railway": "tram_stop",
      "ref": "0157",
      "tram": "yes",
      "wheelchair": "yes"
    }
  },
  {
    "type": "node",
    "id": 251009612,
    "lat": 51.3203206,
    "lon": 12.3296178,
    "tags": {
      "bus": "yes",
      "highway": "bus_stop",
      "name": "Adler",
      "network": "Mitteldeutscher Verkehrsverbund",
      "network:short": "MDV",
      "network:wikidata": "Q1742463",
      "operator": "Leipziger Verkehrsbetriebe",
      "public_transport": "stop_position",
      "railway": "tram_stop",
      "ref": "0211",
      "tram": "yes",
      "wheelchair": "yes"
    }
  },
  {
    "type": "node",
    "id": 251427519,
    "lat": 51.314077,
    "lon": 12.3014677,
    "tags": {
      "name": "Schönauer/Ratzelstraße",
      "network": "Mitteldeutscher Verkehrsverbund",
      "network:short": "MDV",
      "network:wikidata": "Q1742463",
      "operator": "Leipziger Verkehrsbetriebe",
      "public_transport": "stop_position",
      "railway": "tram_stop",
      "ref": "0216",
      "source:name": "survey",
      "source:ref": "survey",
      "tram": "yes",
      "wheelchair": "yes"
    }
  },
  {
    "type": "node",
    "id": 253958853,
    "lat": 51.3321611,
    "lon": 12.3964552,
    "tags": {
      "bus": "yes",
      "name": "Ostplatz",
      "network": "Mitteldeutscher Verkehrsverbund",
      "operator": "Leipziger Verkehrsbetriebe",
      "public_transport": "stop_position",
      "ref": "0121",
      "shelter": "yes",
      "wheelchair": "limited"
    }
  },
  {
    "type": "node",
    "id": 256533969,
    "lat": 51.3379355,
    "lon": 12.3854596,
    "tags": {
      "bus": "yes",
      "name": "Johannisplatz",
      "network": "Mitteldeutscher Verkehrsverbund",
      "operator": "Leipziger Verkehrsbetriebe",
      "public_transport": "stop_position",
      "ref": "0070",
      "source:name": "survey",
      "source:ref": "survey",
      "tactile_paving": "no",
      "wheelchair": "limited"
    }
  },
  {
    "type": "node",
    "id": 259223882,
    "lat": 51.3294272,
    "lon": 12.3802204,
    "tags": {
      "bus": "yes",
      "name": "Bayerischer Bahnhof",
      "network": "Mitteldeutscher Verkehrsverbund",
      "operator": "Leipziger Verkehrsbetriebe",
      "public_transport": "stop_position",
      "route_ref": "60, 412, N60",
      "wheelchair": "no"
    }
  },
  {
    "type": "node",
    "id": 266201683,
    "lat": 51.3391909,
    "lon": 12.3821455,
    "tags": {
      "name": "Augustusplatz",
      "network": "Mitteldeutscher Verkehrsverbund",
      "network:short": "MDV",
      "network:wikidata": "Q1742463",
      "operator": "Leipziger Verkehrsbetriebe",
      "passenger_information_display": "yes",
      "passenger_information_display:speech_output": "no",
      "public_transport": "stop_position",
      "railway": "tram_stop",
      "shelter": "yes",
      "tram": "yes",
      "wheelchair": "yes"
    }
  },
  {
    "type": "node",
    "id": 267351457,
    "lat": 51.3388574,
    "lon": 12.3811804,
    "tags": {
      "bus": "yes",
      "name": "Augustusplatz",
      "network": "Mitteldeutscher Verkehrsverbund",
      "network:wikidata": "Q1742463",
      "network:wikipedia": "de:Mitteldeutscher Verkehrsverbund",
      "operator": "Leipziger Verkehrsbetriebe",
      "public_transport": "stop_position",
      "shelter": "no",
      "wheelchair": "no"
    }
  },
  {
    "type": "node",
    "id": 267410185,
    "lat": 51.3508897,
    "lon": 12.4063717,
    "tags": {
      "bus": "yes",
      "local_ref": "0035",
      "name": "Stannebeinplatz",
      "network": "Mitteldeutscher Verkehrsverbund",
      "operator": "Leipziger Verkehrsbetriebe",
      "public_transport": "stop_position",
      "tactile_paving": "yes",
      "wheelchair": "yes"
    }
  },
  {
    "type": "node",
    "id": 268638888,
    "lat": 51.320956,
    "lon": 12.3734857,
    "tags": {
      "bench": "yes",
      "name": "Karl-Liebknecht-/Kurt-Eisner-Straße",
      "network": "Mitteldeutscher Verkehrsverbund",
      "network:short": "MDV",
      "network:wikidata": "Q1742463",
      "operator": "LVB",
      "public_transport": "stop_position",
      "railway": "tram_stop",
      "ref": "0170",
      "shelter": "yes",
      "tram": "yes",
      "wheelchair": "yes"
    }
  },
  {
    "type": "node",
    "id": 269189409,
    "lat": 51.3349264,
    "lon": 12.3691389,
    "tags": {
      "bus": "yes",
      "name": "Neues Rathaus",
      "network": "Mitteldeutscher Verkehrsverbund",
      "network:short": "MDV",
      "network:wikidata": "Q1742463",
      "network:wikipedia": "de:Mitteldeutscher Verkehrsverbund",
      "public_transport": "stop_position",
      "railway": "tram_stop",
      "ref": "0005",
      "tram": "yes",
      "wheelchair": "yes"
    }
  },
  {
    "type": "node",
    "id": 269328210,
    "lat": 51.3211555,
    "lon": 12.3784985,
    "tags": {
      "bus": "yes",
      "name": "Kurt-Eisner-/Arthur-Hoffmann-Straße",
      "network": "Mitteldeutscher Verkehrsverbund",
      "operator": "Leipziger Verkehrsbetriebe",
      "public_transport": "stop_position",
      "ref": "0151",
      "route_ref": "9;60",
      "wheelchair": "no"
    }
  },
  {
    "type": "node",
    "id": 269328294,
    "lat": 51.3152704,
    "lon": 12.3783018,
    "tags": {
      "name": "Arthur-Hoffmann-/Richard-Lehmann-Straße",
      "network": "Mitteldeutscher Verkehrsverbund",
      "network:short": "MDV",
      "network:wikidata": "Q1742463",
      "public_transport": "stop_position",
      "railway": "tram_stop",
      "ref": "0152",
      "route_ref": "9;N9",
      "tram": "yes",
      "wheelchair": "limited"
    }
  },
  {
    "type": "node",
    "id": 269434698,
    "lat": 51.37517,
    "lon": 12.412048,
    "tags": {
      "bus": "yes",
      "name": "Mockau, Post",
      "network": "Mitteldeutscher Verkehrsverbund",
      "operator": "Leipziger Verkehrsbetriebe",
      "public_transport": "stop_position",
      "ref": "0023",
      "tactile_paving": "no",
      "wheelchair": "limited"
    }
  },
  {
    "type": "node",
    "id": 269434775,
    "lat": 51.3368876,
    "lon": 12.3398717,
    "tags": {
      "bus": "yes",
      "name": "Angerbrücke, Straßenbahnhof",
      "network": "Mitteldeutscher Verkehrsverbund",
      "operator": "Leipziger Verkehrsbetriebe",
      "public_transport": "stop_position",
      "ref": "0247",
      "tactile_paving": "yes",
      "wheelchair": "yes"
    }
  },
  {
    "type": "node",
    "id": 269594494,
    "lat": 51.3400678,
    "lon": 12.3712347,
    "tags": {
      "name": "Thomaskirche",
      "network": "Mitteldeutscher Verkehrsverbund",
      "network:short": "MDV",
      "network:wikidata": "Q1742463",
      "public_transport": "stop_position",
      "railway": "tram_stop",
      "ref": "0004",
      "tram": "yes",
      "wheelchair": "no"
    }
  },
  {
    "type": "node",
    "id": 269599544,
    "lat": 51.3549005,
    "lon": 12.3908316,
    "tags": {
      "name": "Apelstraße, Historischer Straßenbahnhof",
      "network": "Mitteldeutscher Verkehrsverbund",
      "network:short": "MDV",
      "network:wikidata": "Q1742463",
      "public_transport": "stop_position",
      "railway": "tram_stop",
      "ref": "0015",
      "tram": "yes"
    }
  },
  {
    "type": "node",
    "id": 270952023,
    "lat": 51.3611134,
    "lon": 12.3714531,
    "tags": {
      "name": "Georg-Schumann-/Lützowstraße",
      "network": "Mitteldeutscher Verkehrsverbund (MDV)",
      "operator": "Leipziger Verkehrsbetriebe",
      "public_transport": "stop_position",
      "railway": "tram_stop",
      "ref": "0365",
      "tram": "yes",
      "wheelchair": "yes"
    }
  },
  {
    "type": "node",
    "id": 270952456,
    "lat": 51.3559362,
    "lon": 12.3767669,
    "tags": {
      "name": "Chausseehaus",
      "network": "Mitteldeutscher Verkehrsverbund",
      "network:short": "MDV",
      "network:wikidata": "Q1742463",
      "public_transport": "stop_position",
      "railway": "tram_stop",
      "ref": "0364",
      "tram": "yes",
      "wheelchair": "yes"
    }
  },
  {
    "type": "node",
    "id": 270952931,
    "lat": 51.3610454,
    "lon": 12.3806863,
    "tags": {
      "name": "Wilhelminenstraße",
      "network": "Mitteldeutscher Verkehrsverbund",
      "network:short": "MDV",
      "network:wikidata": "Q1742463",
      "operator": "Leipziger Verkehrsbetriebe",
      "public_transport": "stop_position",
      "railway": "tram_stop",
      "ref": "0405",
      "tram": "yes",
      "wheelchair": "yes"
    }
  },
  {
    "type": "node",
    "id": 270955283,
    "lat": 51.3724073,
    "lon": 12.3857304,
    "tags": {
      "name": "Mosenthinstraße",
      "network": "Mitteldeutscher Verkehrsverbund",
      "network:short": "MDV",
      "network:wikidata": "Q1742463",
      "operator": "Leipziger Verkehrsbetriebe",
      "public_transport": "stop_position",
      "railway": "tram_stop",
      "ref": "0408",
      "tactile_paving": "yes",
      "tram": "yes",
      "wheelchair": "yes"
    }
  },
  {
    "type": "node",
    "id": 270955451,
    "lat": 51.3767292,
    "lon": 12.3853506,
    "tags": {
      "name": "Delitzscher/Essener Straße",
      "network": "Mitteldeutscher Verkehrsverbund",
      "operator": "Leipziger Verkehrsbetriebe",
      "public_transport": "stop_position",
      "railway": "tram_stop",
      "ref": "0409",
      "tactile_paving": "yes",
      "tram": "yes",
      "wheelchair": "yes"
    }
  },
  {
    "type": "node",
    "id": 270956345,
    "lat": 51.3843152,
    "lon": 12.3810848,
    "tags": {
      "name": "Klinikum St. Georg",
      "network": "Mitteldeutscher Verkehrsverbund",
      "network:short": "MDV",
      "network:wikidata": "Q1742463",
      "operator": "Leipziger Verkehrsbetriebe",
      "public_transport": "stop_position",
      "railway": "tram_stop",
      "ref": "0411",
      "tactile_paving": "yes",
      "tram": "yes",
      "wheelchair": "yes"
    }
  },
  {
    "type": "node",
    "id": 270958870,
    "lat": 51.3899854,
    "lon": 12.3773358,
    "tags": {
      "bus": "yes",
      "local_ref": "0413",
      "name": "Dachauer Straße",
      "network": "MDV",
      "public_transport": "stop_position",
      "railway": "tram_stop",
      "tram": "yes",
      "wheelchair": "yes"
    }
  },
  {
    "type": "node",
    "id": 270960853,
    "lat": 51.3933842,
    "lon": 12.3760678,
    "tags": {
      "name": "Wiederitzsch-Mitte",
      "network": "Mitteldeutscher Verkehrsverbund",
      "network:short": "MDV",
      "network:wikidata": "Q1742463",
      "operator": "Leipziger Verkehrsbetriebe",
      "public_transport": "stop_position",
      "railway": "tram_stop",
      "ref": "0414",
      "tram": "yes",
      "wheelchair": "yes"
    }
  },
  {
    "type": "node",
    "id": 270960971,
    "lat": 51.3961328,
    "lon": 12.3893384,
    "tags": {
      "bin": "yes",
      "name": "S-Bahnhof Messe",
      "network": "MDV",
      "public_transport": "stop_position",
      "railway": "tram_stop",
      "ref": "0416",
      "ref_name": "Leipzig, S-Bahnhof Messe (Tram/Bus)",
      "shelter": "yes",
      "tactile_paving": "yes",
      "tram": "yes",
      "wheelchair": "yes"
    }
  },
  {
    "type": "node",
    "id": 270961025,
    "lat": 51.3976287,
    "lon": 12.3953549,
    "tags": {
      "name": "Messegelände",
      "network": "MDV",
      "public_transport": "stop_position",
      "railway": "tram_stop",
      "ref": "0417",
      "tram": "yes",
      "wheelchair": "yes"
    }
  },
  {
    "type": "node",
    "id": 270963422,
    "lat": 51.3538241,
    "lon": 12.411631,
    "tags": {
      "bus": "yes",
      "local_ref": "0036",
      "name": "Stöckelstraße",
      "network": "Mitteldeutscher Verkehrsverbund",
      "operator": "Leipziger Verkehrsbetriebe",
      "public_transport": "stop_position",
      "tactile_paving": "no"
    }
  },
  {
    "type": "node",
    "id": 270966482,
    "lat": 51.3599293,
    "lon": 12.443192,
    "tags": {
      "name": "Hohentichelnstraße",
      "network": "Mitteldeutscher Verkehrsverbund",
      "network:short": "MDV",
      "network:wikidata": "Q1742463",
      "operator": "Leipziger Verkehrsbetriebe",
      "public_transport": "stop_position",
      "railway": "tram_stop",
      "ref": "0066",
      "tram": "yes",
      "wheelchair": "yes"
    }
  },
  {
    "type": "node",
    "id": 270966785,
    "lat": 51.3616767,
    "lon": 12.4468523,
    "tags": {
      "name": "Arcus Park",
      "network": "MDV",
      "public_transport": "stop_position",
      "railway": "tram_stop",
      "ref": "0055",
      "tram": "yes",
      "wheelchair": "no"
    }
  },
  {
    "type": "node",
    "id": 270966893,
    "lat": 51.3642788,
    "lon": 12.4523093,
    "tags": {
      "name": "Heiterblick, Teslastraße",
      "network": "Mitteldeutscher Verkehrsverbund",
      "network:short": "MDV",
      "network:wikidata": "Q1742463",
      "public_transport": "stop_position",
      "railway": "tram_stop",
      "ref": "0056",
      "tram": "yes",
      "wheelchair": "yes"
    }
  },
  {
    "type": "node",
    "id": 270967243,
    "lat": 51.3672389,
    "lon": 12.4602214,
    "tags": {
      "alt_name": "Portitzer Allee/Bf. Heiterblick",
      "name": "Portitzer Allee, S-Bahnhof Heiterblick",
      "network": "Mitteldeutscher Verkehrsverbund",
      "network:short": "MDV",
      "network:wikidata": "Q1742463",
      "operator": "Leipziger Verkehrsbetriebe",
      "public_transport": "stop_position",
      "railway": "tram_stop",
      "ref": "0057",
      "tram": "yes",
      "wheelchair": "yes"
    }
  },
  {
    "type": "node",
    "id": 270967505,
    "lat": 51.3727192,
    "lon": 12.4754334,
    "tags": {
      "name": "Taucha, Otto-Schmidt-Straße",
      "network": "Mitteldeutscher Verkehrsverbund",
      "network:short": "MDV",
      "network:wikidata": "Q1742463",
      "operator": "Leipziger Verkehrsbetriebe",
      "public_transport": "stop_position",
      "railway": "tram_stop",
      "ref": "0060",
      "tram": "yes",
      "wheelchair": "yes"
    }
  },
  {
    "type": "node",
    "id": 270968281,
    "lat": 51.3750699,
    "lon": 12.4819241,
    "tags": {
      "name": "Taucha, Theodor-Körner-Straße",
      "network": "Mitteldeutscher Verkehrsverbund",
      "network:short": "MDV",
      "network:wikidata": "Q1742463",
      "operator": "Leipziger Verkehrsbetriebe",
      "public_transport": "stop_position",
      "railway": "tram_stop",
      "ref": "0061",
      "tram": "yes",
      "wheelchair": "no"
    }
  },
  {
    "type": "node",
    "id": 270968385,
    "lat": 51.3764414,
    "lon": 12.485762,
    "tags": {
      "name": "Taucha, Freiligrathstraße",
      "network": "Mitteldeutscher Verkehrsverbund",
      "network:short": "MDV",
      "network:wikidata": "Q1742463",
      "operator": "Leipziger Verkehrsbetriebe",
      "public_transport": "stop_position",
      "railway": "tram_stop",
      "ref": "0062",
      "tram": "yes",
      "wheelchair": "no"
    }
  },
  {
    "type": "node",
    "id": 270968739,
    "lat": 51.3792106,
    "lon": 12.4915045,
    "tags": {
      "name": "Taucha, An der Bürgerruhe",
      "network": "Mitteldeutscher Verkehrsverbund",
      "network:short": "MDV",
      "network:wikidata": "Q1742463",
      "operator": "Leipziger Verkehrsbetriebe",
      "public_transport": "stop_position",
      "railway": "tram_stop",
      "ref": "0063",
      "tactile_paving": "no",
      "tram": "yes",
      "wheelchair": "no"
    }
  },
  {
    "type": "node",
    "id": 272781982,
    "lat": 51.3279266,
    "lon": 12.3996746,
    "tags": {
      "name": "Witzgallstraße",
      "network": "Mitteldeutscher Verkehrsverbund",
      "network:short": "MDV",
      "network:wikidata": "Q1742463",
      "operator": "Leipziger Verkehrsbetriebe",
      "public_transport": "stop_position",
      "railway": "tram_stop",
      "ref": "0122",
      "tram": "yes",
      "wheelchair": "yes"
    }
  },
  {
    "type": "node",
    "id": 276021506,
    "lat": 51.314279,
    "lon": 12.3154909,
    "tags": {
      "name": "Kurt-Kresse-Straße",
      "network": "Mitteldeutscher Verkehrsverbund",
      "network:short": "MDV",
      "network:wikidata": "Q1742463",
      "public_transport": "stop_position",
      "railway": "tram_stop",
      "ref": "0214",
      "tram": "yes",
      "wheelchair": "yes"
    }
  },
  {
    "type": "node",
    "id": 276022917,
    "lat": 51.3070901,
    "lon": 12.2652832,
    "tags": {
      "name": "Zschampertaue",
      "network": "Mitteldeutscher Verkehrsverbund",
      "network:short": "MDV",
      "network:wikidata": "Q1742463",
      "operator": "Leipziger Verkehrsbetriebe",
      "public_transport": "stop_position",
      "railway": "tram_stop",
      "ref": "0221",
      "tram": "yes"
    }
  },
  {
    "type": "node",
    "id": 276027981,
    "lat": 51.3177791,
    "lon": 12.4081357,
    "tags": {
      "name": "Naunhofer Straße",
      "name:ja": "ナウンホーファー通り",
      "network": "Mitteldeutscher Verkehrsverbund",
      "network:short": "MDV",
      "network:wikidata": "Q1742463",
      "operator": "Leipziger Verkehrsbetriebe",
      "public_transport": "stop_position",
      "railway": "tram_stop",
      "ref": "0125",
      "tram": "yes",
      "wheelchair": "yes"
    }
  },
  {
    "type": "node",
    "id": 276038047,
    "lat": 51.3143561,
    "lon": 12.4122368,
    "tags": {
      "name": "Völkerschlachtdenkmal",
      "network": "Mitteldeutscher Verkehrsverbund",
      "network:short": "MDV",
      "network:wikidata": "Q1742463",
      "public_transport": "stop_position",
      "railway": "tram_stop",
      "ref": "0126",
      "tram": "yes",
      "wheelchair": "yes"
    }
  },
  {
    "type": "node",
    "id": 276038355,
    "lat": 51.3114015,
    "lon": 12.4168233,
    "tags": {
      "name": "Südfriedhof",
      "network": "Mitteldeutscher Verkehrsverbund",
      "network:short": "MDV",
      "network:wikidata": "Q1742463",
      "public_transport": "stop_position",
      "railway": "tram_stop",
      "ref": "0127",
      "tram": "yes",
      "wheelchair": "yes"
    }
  },
  {
    "type": "node",
    "id": 276049863,
    "lat": 51.2974996,
    "lon": 12.4354811,
    "tags": {
      "name": "Roseggerstraße",
      "network": "Mitteldeutscher Verkehrsverbund",
      "network:short": "MDV",
      "network:wikidata": "Q1742463",
      "operator": "Leipziger Verkehrsbetriebe",
      "public_transport": "stop_position",
      "railway": "tram_stop",
      "ref": "0131",
      "tram": "yes",
      "wheelchair": "yes"
    }
  },
  {
    "type": "node",
    "id": 276053918,
    "lat": 51.3005038,
    "lon": 12.4311594,
    "tags": {
      "name": "Franzosenallee",
      "network": "Mitteldeutscher Verkehrsverbund",
      "network:short": "MDV",
      "network:wikidata": "Q1742463",
      "operator": "Leipziger Verkehrsbetriebe",
      "public_transport": "stop_position",
      "railway": "tram_stop",
      "ref": "0130",
      "tram": "yes",
      "wheelchair": "yes"
    }
  },
  {
    "type": "node",
    "id": 276066177,
    "lat": 51.3292629,
    "lon": 12.3368422,
    "tags": {
      "bus": "yes",
      "name": "Elster Passage",
      "network": "Mitteldeutscher Verkehrsverbund",
      "operator": "Leipziger Verkehrsbetriebe",
      "public_transport": "stop_position",
      "ref": "0249",
      "tactile_paving": "yes",
      "wheelchair": "yes"
    }
  },
  {
    "type": "node",
    "id": 276279177,
    "lat": 51.3526176,
    "lon": 12.3733939,
    "tags": {
      "bus": "yes",
      "name": "Nordplatz",
      "network": "MDV",
      "operator": "Leipziger Verkehrsbetriebe",
      "public_transport": "stop_position"
    }
  },
  {
    "type": "node",
    "id": 276281920,
    "lat": 51.3671433,
    "lon": 12.3758701,
    "tags": {
      "name": "Virchow-/Coppistraße",
      "network": "Mitteldeutscher Verkehrsverbund (MDV)",
      "operator": "Leipziger Verkehrsbetriebe",
      "public_transport": "stop_position",
      "railway": "tram_stop",
      "ref": "0603",
      "tram": "yes",
      "wheelchair": "no"
    }
  },
  {
    "type": "node",
    "id": 276282220,
    "lat": 51.3691161,
    "lon": 12.3764755,
    "tags": {
      "name": "Gottschallstraße",
      "network": "Mitteldeutscher Verkehrsverbund (MDV)",
      "operator": "Leipziger Verkehrsbetriebe",
      "public_transport": "stop_position",
      "railway": "tram_stop",
      "ref": "0360",
      "shelter": "yes",
      "tram": "yes",
      "wheelchair": "limited"
    }
  },
  {
    "type": "node",
    "id": 276292568,
    "lat": 51.324444,
    "lon": 12.2624248,
    "tags": {
      "bench": "yes",
      "name": "Miltitz",
      "network": "MDV",
      "operator": "LVB",
      "public_transport": "stop_position",
      "railway": "tram_stop",
      "ref": "0302",
      "shelter": "yes",
      "tram": "yes",
      "wheelchair": "yes"
    }
  },
  {
    "type": "node",
    "id": 276292922,
    "lat": 51.3232444,
    "lon": 12.2647354,
    "tags": {
      "bench": "yes",
      "name": "Saturnstraße",
      "network": "Mitteldeutscher Verkehrsverbund",
      "network:short": "MDV",
      "network:wikidata": "Q1742463",
      "operator": "LVB",
      "public_transport": "stop_position",
      "railway": "tram_stop",
      "ref": "0301",
      "shelter": "yes",
      "tram": "yes",
      "wheelchair": "yes"
    }
  },
  {
    "type": "node",
    "id": 276293241,
    "lat": 51.3215423,
    "lon": 12.2675396,
    "tags": {
      "name": "Jupiterstraße",
      "network": "Mitteldeutscher Verkehrsverbund",
      "network:short": "MDV",
      "network:wikidata": "Q1742463",
      "operator": "Leipziger Verkehrsbetriebe",
      "public_transport": "stop_position",
      "railway": "tram_stop",
      "ref": "0300",
      "tactile_paving": "yes",
      "tram": "yes",
      "wheelchair": "yes"
    }
  },
  {
    "type": "node",
    "id": 276293558,
    "lat": 51.3176137,
    "lon": 12.2679158,
    "tags": {
      "name": "Plovdiver Straße",
      "network": "Mitteldeutscher Verkehrsverbund",
      "network:short": "MDV",
      "network:wikidata": "Q1742463",
      "operator": "LVB",
      "public_transport": "stop_position",
      "railway": "tram_stop",
      "ref": "0299",
      "tram": "yes",
      "wheelchair": "yes"
    }
  },
  {
    "type": "node",
    "id": 276293866,
    "lat": 51.3186158,
    "lon": 12.275273,
    "tags": {
      "name": "Kiewer Straße",
      "network": "Mitteldeutscher Verkehrsverbund",
      "network:short": "MDV",
      "network:wikidata": "Q1742463",
      "public_transport": "stop_position",
      "railway": "tram_stop",
      "ref": "0298",
      "tram": "yes",
      "wheelchair": "yes"
    }
  },
  {
    "type": "node",
    "id": 276294711,
    "lat": 51.3203495,
    "lon": 12.2824878,
    "tags": {
      "name": "Am Kirschberg",
      "network": "Mitteldeutscher Verkehrsverbund",
      "network:short": "MDV",
      "network:wikidata": "Q1742463",
      "public_transport": "stop_position",
      "railway": "tram_stop",
      "ref": "0297",
      "tram": "yes",
      "wheelchair": "yes"
    }
  },
  {
    "type": "node",
    "id": 276295716,
    "lat": 51.3257126,
    "lon": 12.3017781,
    "tags": {
      "name": "Grünauer Allee",
      "network": "Mitteldeutscher Verkehrsverbund",
      "network:short": "MDV",
      "network:wikidata": "Q1742463",
      "public_transport": "stop_position",
      "railway": "tram_stop",
      "ref": "0284",
      "tram": "yes",
      "wheelchair": "yes"
    }
  },
  {
    "type": "node",
    "id": 276302617,
    "lat": 51.3253722,
    "lon": 12.4008905,
    "tags": {
      "name": "Technisches Rathaus",
      "network": "Mitteldeutscher Verkehrsverbund",
      "network:short": "MDV",
      "network:wikidata": "Q1742463",
      "public_transport": "stop_position",
      "railway": "tram_stop",
      "ref": "0123",
      "tram": "yes",
      "wheelchair": "yes"
    }
  },
  {
    "type": "node",
    "id": 276361157,
    "lat": 51.3801556,
    "lon": 12.384251,
    "tags": {
      "name": "Hornbach Baumarkt",
      "network": "Mitteldeutscher Verkehrsverbund",
      "network:short": "MDV",
      "network:wikidata": "Q1742463",
      "operator": "Leipziger Verkehrsbetriebe",
      "public_transport": "stop_position",
      "railway": "tram_stop",
      "ref": "0410",
      "tactile_paving": "yes",
      "tram": "yes",
      "wheelchair": "yes"
    }
  },
  {
    "type": "node",
    "id": 276364385,
    "lat": 51.3329279,
    "lon": 12.3390351,
    "tags": {
      "bus": "yes",
      "name": "Felsenkeller",
      "network": "MDV",
      "public_transport": "stop_position",
      "ref": "0228",
      "wheelchair": "no"
    }
  },
  {
    "type": "node",
    "id": 277529705,
    "lat": 51.3321634,
    "lon": 12.3506896,
    "tags": {
      "name": "Klingerweg",
      "network": "Mitteldeutscher Verkehrsverbund",
      "network:short": "MDV",
      "network:wikidata": "Q1742463",
      "public_transport": "stop_position",
      "railway": "tram_stop",
      "ref": "0207",
      "tram": "yes",
      "wheelchair": "yes"
    }
  },
  {
    "type": "node",
    "id": 307720580,
    "lat": 51.2965049,
    "lon": 12.3961557,
    "tags": {
      "name": "Lößnig",
      "network": "Mitteldeutscher Verkehrsverbund",
      "network:short": "MDV",
      "network:wikidata": "Q1742463",
      "operator": "Leipziger Verkehrsbetriebe",
      "public_transport": "stop_position",
      "railway": "tram_stop",
      "ref": "0159",
      "tram": "yes",
      "wheelchair": "yes"
    }
  },
  {
    "type": "node",
    "id": 309117355,
    "lat": 51.3102583,
    "lon": 12.3778698,
    "tags": {
      "bus": "yes",
      "name": "Wiedebachplatz",
      "network": "Mitteldeutscher Verkehrsverbund",
      "operator": "Leipziger Verkehrsbetriebe",
      "public_transport": "stop_position",
      "tactile_paving": "no"
    }
  },
  {
    "type": "node",
    "id": 309167719,
    "lat": 51.2945001,
    "lon": 12.441014,
    "tags": {
      "bus": "yes",
      "name": "Meusdorf",
      "network": "Mitteldeutscher Verkehrsverbund",
      "operator": "Leipziger Verkehrsbetriebe",
      "public_transport": "stop_position",
      "tactile_paving": "no"
    }
  },
  {
    "type": "node",
    "id": 314481919,
    "lat": 51.3457201,
    "lon": 12.4059615,
    "tags": {
      "bus": "yes",
      "name": "Hermann-Liebmann-/Eisenbahnstraße",
      "network": "Mitteldeutscher Verkehrsverbund",
      "network:short": "MDV",
      "network:wikidata": "Q1742463",
      "operator": "Leipziger Verkehrsbetriebe",
      "public_transport": "stop_position",
      "ref": "0034",
      "wheelchair": "no"
    }
  },
  {
    "type": "node",
    "id": 317209573,
    "lat": 51.338323,
    "lon": 12.3856487,
    "tags": {
      "bus": "yes",
      "description": "SEV-Haltestelle",
      "name": "Johannisplatz",
      "network": "Mitteldeutscher Verkehrsverbund",
      "operator": "Leipziger Verkehrsbetriebe",
      "public_transport": "stop_position",
      "ref": "0070",
      "source:name": "survey",
      "source:ref": "survey",
      "tactile_paving": "no"
    }
  },
  {
    "type": "node",
    "id": 331333407,
    "lat": 51.3182014,
    "lon": 12.407215,
    "tags": {
      "bus": "yes",
      "name": "Naunhofer Straße",
      "network": "Mitteldeutscher Verkehrsverbund",
      "network:short": "MDV",
      "network:wikidata": "Q1742463",
      "operator": "Leipziger Verkehrsbetriebe",
      "public_transport": "stop_position",
      "railway": "tram_stop",
      "ref": "0125",
      "tram": "yes"
    }
  },
  {
    "type": "node",
    "id": 331544533,
    "lat": 51.314568,
    "lon": 12.394875,
    "tags": {
      "bus": "yes",
      "direction": "backward",
      "name": "Richard-Lehmann-/Zwickauer Straße",
      "network": "Mitteldeutscher Verkehrsverbund",
      "operator": "Leipziger Verkehrsbetriebe",
      "public_transport": "stop_position",
      "ref": "0144",
      "wheelchair": "yes"
    }
  },
  {
    "type": "node",
    "id": 331544542,
    "lat": 51.3146282,
    "lon": 12.3936859,
    "tags": {
      "bus": "yes",
      "direction": "forward",
      "name": "Richard-Lehmann-/Zwickauer Straße",
      "network": "Mitteldeutscher Verkehrsverbund",
      "operator": "Leipziger Verkehrsbetriebe",
      "public_transport": "stop_position",
      "ref": "0144",
      "wheelchair": "yes"
    }
  },
  {
    "type": "node",
    "id": 338277618,
    "lat": 51.3377303,
    "lon": 12.3405884,
    "tags": {
      "bus": "yes",
      "name": "Angerbrücke, Straßenbahnhof",
      "network": "MDV",
      "public_transport": "stop_position",
      "ref": "0247",
      "wheelchair": "yes"
    }
  },
  {
    "type": "node",
    "id": 344269614,
    "lat": 51.3383756,
    "lon": 12.38174,
    "tags": {
      "name": "Augustusplatz",
      "network": "Mitteldeutscher Verkehrsverbund",
      "network:short": "MDV",
      "network:wikidata": "Q1742463",
      "operator": "Leipziger Verkehrsbetriebe",
      "passenger_information_display": "yes",
      "public_transport": "stop_position",
      "railway": "tram_stop",
      "shelter": "yes",
      "tram": "yes",
      "wheelchair": "yes"
    }
  },
  {
    "type": "node",
    "id": 350551586,
    "lat": 51.3942357,
    "lon": 12.3848865,
    "tags": {
      "bench": "no",
      "bin": "no",
      "bus": "yes",
      "description": "SEV-Haltestelle",
      "highway": "bus_stop",
      "lit": "yes",
      "name": "Georg-Herwegh-Straße",
      "network": "Mitteldeutscher Verkehrsverbund",
      "network:wikidata": "Q1742463",
      "network:wikipedia": "de:Mitteldeutscher Verkehrsverbund",
      "operator": "Leipziger Verkehrsbetriebe",
      "public_transport": "platform",
      "route_ref": "SEV",
      "shelter": "no",
      "tactile_paving": "no",
      "wheelchair": "no"
    }
  },
  {
    "type": "node",
    "id": 350551588,
    "lat": 51.3918624,
    "lon": 12.3768133,
    "tags": {
      "bench": "no",
      "bin": "no",
      "bus": "yes",
      "description": "SEV-Haltestelle",
      "highway": "bus_stop",
      "kerb": "yes",
      "lit": "yes",
      "name": "Wiederitzsch-Mitte",
      "network": "Mitteldeutscher Verkehrsverbund",
      "network:wikidata": "Q1742463",
      "operator": "Leipziger Verkehrsbetriebe",
      "passenger_information_display": "no",
      "public_transport": "platform",
      "route_ref": "SEV",
      "shelter": "no",
      "tactile_paving": "no",
      "wheelchair": "no"
    }
  },
  {
    "type": "node",
    "id": 350551591,
    "lat": 51.390433,
    "lon": 12.3768126,
    "tags": {
      "bench": "yes",
      "bus": "yes",
      "highway": "bus_stop",
      "kerb": "yes",
      "lit": "yes",
      "name": "Dachauer Straße",
      "network": "Mitteldeutscher Verkehrsverbund",
      "network:short": "MDV",
      "network:wikidata": "Q1742463",
      "operator": "Leipziger Verkehrsbetriebe",
      "passenger_information_display": "no",
      "public_transport": "platform",
      "shelter": "yes",
      "tactile_paving": "yes",
      "wheelchair": "yes"
    }
  },
  {
    "type": "node",
    "id": 350551594,
    "lat": 51.3898006,
    "lon": 12.3772586,
    "tags": {
      "bench": "no",
      "bin": "no",
      "bus": "yes",
      "departures_board": "timetable",
      "description": "SEV-Haltestelle",
      "highway": "bus_stop",
      "kerb": "raised",
      "kerb:approach_aid": "no",
      "lit": "yes",
      "name": "Dachauer Straße",
      "network": "Mitteldeutscher Verkehrsverbund",
      "network:short": "MDV",
      "network:wikidata": "Q1742463",
      "operator": "Leipziger Verkehrsbetriebe",
      "passenger_information_display": "no",
      "public_transport": "platform",
      "route_ref": "SEV",
      "shelter": "no",
      "tactile_paving": "no",
      "wheelchair": "no"
    }
  },
  {
    "type": "node",
    "id": 353183123,
    "lat": 51.3917693,
    "lon": 12.3769406,
    "tags": {
      "bench": "no",
      "bin": "no",
      "bus": "yes",
      "description": "SEV-Haltestelle",
      "highway": "bus_stop",
      "kerb": "yes",
      "lit": "yes",
      "name": "Wiederitzsch-Mitte",
      "network": "Mitteldeutscher Verkehrsverbund",
      "network:wikidata": "Q1742463",
      "operator": "Leipziger Verkehrsbetriebe",
      "passenger_information_display": "no",
      "public_transport": "platform",
      "route_ref": "SEV",
      "shelter": "no",
      "tactile_paving": "no",
      "wheelchair": "no"
    }
  },
  {
    "type": "node",
    "id": 355352848,
    "lat": 51.3677019,
    "lon": 12.4607746,
    "tags": {
      "bench": "yes",
      "bin": "yes",
      "bus": "yes",
      "departures_board": "timetable",
      "highway": "bus_stop",
      "kerb": "raised",
      "kerb:approach_aid": "no",
      "lit": "yes",
      "local_ref": "0057",
      "name": "Portitzer Allee, S-Bahnhof Heiterblick",
      "network": "Mitteldeutscher Verkehrsverbund",
      "network:short": "MDV",
      "network:wikidata": "Q1742463",
      "operator": "Leipziger Verkehrsbetriebe",
      "passenger_information_display": "no",
      "public_transport": "platform",
      "ref": "0057",
      "shelter": "no",
      "tactile_paving": "yes",
      "wheelchair": "no"
    }
  },
  {
    "type": "node",
    "id": 355363380,
    "lat": 51.3858601,
    "lon": 12.3811072,
    "tags": {
      "name": "Klinikum St. Georg",
      "network": "Mitteldeutscher Verkehrsverbund",
      "old_name": "Eutritzsch, Krankenhaus",
      "operator": "Leipziger Verkehrsbetriebe",
      "public_transport": "stop_position",
      "railway": "tram_stop",
      "ref": "0412",
      "tram": "yes"
    }
  },
  {
    "type": "node",
    "id": 355363381,
    "lat": 51.385823,
    "lon": 12.3811254,
    "tags": {
      "name": "Klinikum St. Georg",
      "network": "Mitteldeutscher Verkehrsverbund",
      "old_name": "Eutritzsch, Krankenhaus",
      "operator": "Leipziger Verkehrsbetriebe",
      "public_transport": "stop_position",
      "railway": "tram_stop",
      "ref": "0412",
      "tram": "yes"
    }
  },
  {
    "type": "node",
    "id": 366040965,
    "lat": 51.3008153,
    "lon": 12.4327839,
    "tags": {
      "bus": "yes",
      "name": "Franzosenallee",
      "network": "Mitteldeutscher Verkehrsverbund",
      "network:wikidata": "Q1742463",
      "operator": "Leipziger Verkehrsbetriebe",
      "public_transport": "stop_position",
      "tactile_paving": "yes"
    }
  },
  {
    "type": "node",
    "id": 383742358,
    "lat": 51.3201493,
    "lon": 12.3785691,
    "tags": {
      "bench": "yes",
      "bin": "yes",
      "bus": "yes",
      "highway": "bus_stop",
      "lit": "yes",
      "name": "Kurt-Eisner-/Arthur-Hoffmann-Straße",
      "network": "Mitteldeutscher Verkehrsverbund",
      "network:short": "MDV",
      "network:wikidata": "Q1742463",
      "operator": "Leipziger Verkehrsbetriebe",
      "public_transport": "platform",
      "ref": "0151",
      "route_ref": "412, N9",
      "shelter": "yes",
      "tactile_paving": "no",
      "tram": "yes",
      "wheelchair": "no"
    }
  },
  {
    "type": "node",
    "id": 383742363,
    "lat": 51.3042817,
    "lon": 12.4252037,
    "tags": {
      "bus": "yes",
      "name": "Probstheida",
      "network": "Mitteldeutscher Verkehrsverbund",
      "network:short": "MDV",
      "network:wikidata": "Q1742463",
      "operator": "Leipziger Verkehrsbetriebe",
      "public_transport": "stop_position",
      "ref": "0129",
      "tactile_paving": "yes"
    }
  },
  {
    "type": "node",
    "id": 387125200,
    "lat": 51.3116464,
    "lon": 12.3727723,
    "tags": {
      "bus": "yes",
      "name": "Connewitzer Kreuz",
      "network": "Mitteldeutscher Verkehrsverbund",
      "operator": "Leipziger Verkehrsbetriebe",
      "public_transport": "stop_position",
      "ref": "0172",
      "route_ref": "107",
      "wheelchair": "limited"
    }
  },
  {
    "type": "node",
    "id": 408502815,
    "lat": 51.3348756,
    "lon": 12.3694877,
    "tags": {
      "bus": "yes",
      "description": "SEV-Haltestelle",
      "name": "Neues Rathaus",
      "network": "Mitteldeutscher Verkehrsverbund",
      "operator": "Leipziger Verkehrsbetriebe",
      "public_transport": "stop_position",
      "tactile_paving": "no"
    }
  },
  {
    "type": "node",
    "id": 412129945,
    "lat": 51.343534,
    "lon": 12.3857812,
    "tags": {
      "name": "Hofmeisterstraße",
      "network": "Mitteldeutscher Verkehrsverbund",
      "network:short": "MDV",
      "network:wikidata": "Q1742463",
      "note": "weiterhin keine Bedienung durch Linie 8",
      "public_transport": "stop_position",
      "railway": "tram_stop",
      "ref": "0030",
      "tram": "yes",
      "wheelchair": "limited"
    }
  },
  {
    "type": "node",
    "id": 412952864,
    "lat": 51.334758,
    "lon": 12.3781299,
    "tags": {
      "bus": "yes",
      "name": "Roßplatz",
      "network": "Mitteldeutscher Verkehrsverbund",
      "operator": "Leipziger Verkehrsbetriebe",
      "public_transport": "stop_position",
      "ref": "0008",
      "shelter": "no",
      "wheelchair": "no"
    }
  },
  {
    "type": "node",
    "id": 417308205,
    "lat": 51.3274464,
    "lon": 12.3887179,
    "tags": {
      "name": "Johannisallee",
      "public_transport": "stop_position",
      "railway": "tram_stop",
      "tram": "yes",
      "wheelchair": "yes"
    }
  },
  {
    "type": "node",
    "id": 420677250,
    "lat": 51.3668357,
    "lon": 12.3762212,
    "tags": {
      "bus": "yes",
      "local_ref": "0603",
      "name": "Virchow-/Coppistraße",
      "network": "Mitteldeutscher Verkehrsverbund",
      "operator": "Leipziger Verkehrsbetriebe",
      "public_transport": "stop_position",
      "route_ref": "90",
      "tactile_paving": "yes"
    }
  },
  {
    "type": "node",
    "id": 425349120,
    "lat": 51.3186291,
    "lon": 12.341999,
    "tags": {
      "bus": "yes",
      "name": "Rödelstraße",
      "network": "Mitteldeutscher Verkehrsverbund",
      "operator": "Leipziger Verkehrsbetriebe",
      "public_transport": "stop_position",
      "ref": "0508",
      "wheelchair": "yes"
    }
  },
  {
    "type": "node",
    "id": 443055839,
    "lat": 51.3376878,
    "lon": 12.3407059,
    "tags": {
      "bus": "yes",
      "name": "Angerbrücke, Straßenbahnhof",
      "network": "Mitteldeutscher Verkehrsverbund",
      "operator": "Leipziger Verkehrsbetriebe",
      "public_transport": "stop_position",
      "ref": "0247",
      "tactile_paving": "yes",
      "wheelchair": "yes"
    }
  },
  {
    "type": "node",
    "id": 470327462,
    "lat": 51.3424712,
    "lon": 12.3592521,
    "tags": {
      "name": "Waldplatz",
      "network": "Mitteldeutscher Verkehrsverbund",
      "network:short": "MDV",
      "network:wikidata": "Q1742463",
      "operator": "Leipziger Verkehrsbetriebe",
      "passenger_information_display": "yes",
      "public_transport": "stop_position",
      "railway": "tram_stop",
      "ref": "0245",
      "tram": "yes",
      "wheelchair": "yes"
    }
  },
  {
    "type": "node",
    "id": 470327463,
    "lat": 51.3416965,
    "lon": 12.3562672,
    "tags": {
      "name": "Waldplatz",
      "network": "Mitteldeutscher Verkehrsverbund",
      "network:short": "MDV",
      "network:wikidata": "Q1742463",
      "passenger_information_display": "yes",
      "passenger_information_display:speech_output": "no",
      "public_transport": "stop_position",
      "railway": "tram_stop",
      "ref": "0245",
      "tram": "yes",
      "wheelchair": "yes"
    }
  },
  {
    "type": "node",
    "id": 470327468,
    "lat": 51.3389107,
    "lon": 12.3812809,
    "tags": {
      "bus": "yes",
      "name": "Augustusplatz",
      "network": "Mitteldeutscher Verkehrsverbund",
      "network:short": "MDV",
      "network:wikidata": "Q1742463",
      "operator": "Leipziger Verkehrsbetriebe",
      "passenger_information_display": "yes",
      "public_transport": "stop_position",
      "railway": "tram_stop",
      "tram": "yes",
      "wheelchair": "limited"
    }
  },
  {
    "type": "node",
    "id": 470327476,
    "lat": 51.3379559,
    "lon": 12.38528,
    "tags": {
      "name": "Johannisplatz",
      "network": "Mitteldeutscher Verkehrsverbund",
      "network:short": "MDV",
      "network:wikidata": "Q1742463",
      "public_transport": "stop_position",
      "railway": "tram_stop",
      "ref": "0070",
      "source:name": "survey",
      "source:ref": "survey",
      "tram": "yes",
      "wheelchair": "yes"
    }
  },
  {
    "type": "node",
    "id": 470327482,
    "lat": 51.3382343,
    "lon": 12.3855512,
    "tags": {
      "name": "Johannisplatz",
      "network": "Mitteldeutscher Verkehrsverbund",
      "network:short": "MDV",
      "network:wikidata": "Q1742463",
      "public_transport": "stop_position",
      "railway": "tram_stop",
      "ref": "0070",
      "source:name": "survey",
      "source:ref": "survey",
      "tram": "yes",
      "wheelchair": "yes"
    }
  },
  {
    "type": "node",
    "id": 503609791,
    "lat": 51.331244,
    "lon": 12.3190523,
    "tags": {
      "bus": "yes",
      "name": "Lindenau, Bushof",
      "network": "Mitteldeutscher Verkehrsverbund",
      "operator": "Leipziger Verkehrsbetriebe",
      "public_transport": "stop_position",
      "ref": "0281",
      "tactile_paving": "yes",
      "wheelchair": "yes"
    }
  },
  {
    "type": "node",
    "id": 503704806,
    "lat": 51.3007959,
    "lon": 12.4327111,
    "tags": {
      "bus": "yes",
      "name": "Franzosenallee",
      "network": "Mitteldeutscher Verkehrsverbund",
      "network:wikidata": "Q1742463",
      "operator": "Leipziger Verkehrsbetriebe",
      "public_transport": "stop_position",
      "ref": "0130",
      "tactile_paving": "yes"
    }
  },
  {
    "type": "node",
    "id": 503704817,
    "lat": 51.3041888,
    "lon": 12.4255256,
    "tags": {
      "bus": "yes",
      "name": "Probstheida",
      "network": "Mitteldeutscher Verkehrsverbund",
      "network:short": "MDV",
      "network:wikidata": "Q1742463",
      "operator": "Leipziger Verkehrsbetriebe",
      "public_transport": "stop_position",
      "railway": "tram_stop",
      "ref": "0129",
      "tram": "yes",
      "wheelchair": "yes"
    }
  },
  {
    "type": "node",
    "id": 573809637,
    "lat": 51.323049,
    "lon": 12.3962693,
    "tags": {
      "leaf_type": "broadleaved",
      "natural": "tree"
    }
  },
  {
    "type": "node",
    "id": 628655040,
    "lat": 51.320521,
    "lon": 12.3771835,
    "tags": {
      "bus": "yes",
      "name": "Kurt-Eisner-/Arthur-Hoffmann-Straße",
      "network": "MDV",
      "public_transport": "stop_position",
      "ref": "0151",
      "wheelchair": "no"
    }
  },
  {
    "type": "node",
    "id": 628655042,
    "lat": 51.3201113,
    "lon": 12.3784866,
    "tags": {
      "name": "Kurt-Eisner-/Arthur-Hoffmann-Straße",
      "network": "Mitteldeutscher Verkehrsverbund",
      "network:short": "MDV",
      "network:wikidata": "Q1742463",
      "operator": "Leipziger Verkehrsbetriebe",
      "public_transport": "stop_position",
      "railway": "tram_stop",
      "ref": "0151",
      "route_ref": "9",
      "tactile_paving": "no",
      "tram": "yes",
      "wheelchair": "no"
    }
  },
  {
    "type": "node",
    "id": 628655043,
    "lat": 51.3210655,
    "lon": 12.378393,
    "tags": {
      "bench": "yes",
      "bin": "yes",
      "bus": "yes",
      "highway": "bus_stop",
      "lit": "yes",
      "name": "Kurt-Eisner-/Arthur-Hoffmann-Straße",
      "network": "Mitteldeutscher Verkehrsverbund",
      "network:short": "MDV",
      "network:wikidata": "Q1742463",
      "operator": "Leipziger Verkehrsbetriebe",
      "public_transport": "platform",
      "ref": "0151",
      "shelter": "yes",
      "tactile_paving": "no",
      "wheelchair": "no"
    }
  },
  {
    "type": "node",
    "id": 690155014,
    "lat": 51.3207,
    "lon": 12.3790479,
    "tags": {
      "bus": "yes",
      "name": "Kurt-Eisner-/Arthur-Hoffmann-Straße",
      "network": "MDV",
      "public_transport": "stop_position",
      "ref": "0151",
      "wheelchair": "yes"
    }
  },
  {
    "type": "node",
    "id": 722502815,
    "lat": 51.3969187,
    "lon": 12.3962778,
    "tags": {
      "bus": "yes",
      "description": "Auch Fernbushaltestelle für Flixbus",
      "highway": "bus_stop",
      "local_ref": "A",
      "name": "Messegelände",
      "network": "MDV",
      "network:wikidata": "Q1742463",
      "network:wikipedia": "de:Mitteldeutscher Verkehrsverbund",
      "public_transport": "stop_position",
      "wheelchair": "yes"
    }
  },
  {
    "type": "node",
    "id": 857693304,
    "lat": 51.3394657,
    "lon": 12.3712463,
    "tags": {
      "bus": "yes",
      "name": "Thomaskirche",
      "network": "MDV",
      "network:wikidata": "Q1742463",
      "network:wikipedia": "de:Mitteldeutscher Verkehrsverbund",
      "public_transport": "stop_position",
      "ref": "0004",
      "wheelchair": "yes"
    }
  },
  {
    "type": "node",
    "id": 857693309,
    "lat": 51.3394647,
    "lon": 12.3713367,
    "tags": {
      "bench": "yes",
      "bin": "yes",
      "bus": "yes",
      "highway": "bus_stop",
      "kerb": "flush",
      "lit": "yes",
      "name": "Thomaskirche",
      "name:ja": "トーマス教会",
      "network": "Mitteldeutscher Verkehrsverbund",
      "network:short": "MDV",
      "network:wikidata": "Q1742463",
      "operator": "Leipziger Verkehrsbetriebe",
      "passenger_information_display": "yes",
      "passenger_information_display:speech_output": "no",
      "public_transport": "platform",
      "ref": "0004",
      "shelter": "yes",
      "tactile_paving": "no",
      "tram": "yes",
      "wheelchair": "yes"
    }
  },
  {
    "type": "node",
    "id": 857693314,
    "lat": 51.3394457,
    "lon": 12.3711747,
    "tags": {
      "name": "Thomaskirche",
      "network": "Mitteldeutscher Verkehrsverbund",
      "network:short": "MDV",
      "network:wikidata": "Q1742463",
      "public_transport": "stop_position",
      "railway": "tram_stop",
      "ref": "0004",
      "tram": "yes",
      "wheelchair": "no"
    }
  },
  {
    "type": "node",
    "id": 880386657,
    "lat": 51.355669,
    "lon": 12.434259,
    "tags": {
      "name": "Bautzner Straße",
      "network": "Mitteldeutscher Verkehrsverbund",
      "network:short": "MDV",
      "network:wikidata": "Q1742463",
      "operator": "Leipziger Verkehrsbetriebe",
      "public_transport": "stop_position",
      "railway": "tram_stop",
      "ref": "0053",
      "tram": "yes",
      "wheelchair": "yes"
    }
  },
  {
    "type": "node",
    "id": 880386676,
    "lat": 51.355466,
    "lon": 12.4337579,
    "tags": {
      "name": "Bautzner Straße",
      "network": "Mitteldeutscher Verkehrsverbund",
      "network:short": "MDV",
      "network:wikidata": "Q1742463",
      "operator": "Leipziger Verkehrsbetriebe",
      "public_transport": "stop_position",
      "railway": "tram_stop",
      "ref": "0053",
      "tram": "yes",
      "wheelchair": "yes"
    }
  },
  {
    "type": "node",
    "id": 915371931,
    "lat": 51.3149569,
    "lon": 12.3741251,
    "tags": {
      "bus": "yes",
      "name": "Richard-Lehmann-Straße, HTWK",
      "name:ja": "リヒャルト・レーマン通り, HTWK",
      "network": "Mitteldeutscher Verkehrsverbund",
      "network:short": "MDV",
      "network:wikidata": "Q1742463",
      "operator": "Leipziger Verkehrsbetriebe",
      "public_transport": "stop_position",
      "ref": "0171",
      "tactile_paving": "no",
      "wheelchair": "no"
    }
  },
  {
    "type": "node",
    "id": 937904208,
    "lat": 51.3615351,
    "lon": 12.3709067,
    "tags": {
      "bus": "yes",
      "name": "Georg-Schumann-/Lützowstraße",
      "network": "MDV",
      "operator": "Leipziger Verkehrsbetriebe",
      "public_transport": "stop_position"
    }
  },
  {
    "type": "node",
    "id": 942275067,
    "lat": 51.3516793,
    "lon": 12.4258996,
    "tags": {
      "name": "Permoser-/Torgauer Straße",
      "network": "Mitteldeutscher Verkehrsverbund",
      "network:short": "MDV",
      "network:wikidata": "Q1742463",
      "public_transport": "stop_position",
      "railway": "tram_stop",
      "ref": "0052",
      "tram": "yes",
      "wheelchair": "yes"
    }
  },
  {
    "type": "node",
    "id": 942275077,
    "lat": 51.3540301,
    "lon": 12.4308214,
    "tags": {
      "name": "Schwantesstraße",
      "network": "Mitteldeutscher Verkehrsverbund",
      "network:short": "MDV",
      "network:wikidata": "Q1742463",
      "public_transport": "stop_position",
      "railway": "tram_stop",
      "ref": "0164",
      "tram": "yes",
      "wheelchair": "yes"
    }
  },
  {
    "type": "node",
    "id": 942554498,
    "lat": 51.3204749,
    "lon": 12.3772425,
    "tags": {
      "bench": "no",
      "bin": "yes",
      "bus": "yes",
      "check_date:shelter": "2025-09-28",
      "highway": "bus_stop",
      "lit": "no",
      "name": "Kurt-Eisner-/Arthur-Hoffmann-Straße",
      "operator": "Leipziger Verkehrsbetriebe",
      "public_transport": "platform",
      "ref": "0151",
      "route_ref": "60, 69, 74, N9, N60",
      "shelter": "yes",
      "tactile_paving": "no",
      "wheelchair": "no"
    }
  },
  {
    "type": "node",
    "id": 942701989,
    "lat": 51.3148082,
    "lon": 12.3778749,
    "tags": {
      "bus": "yes",
      "name": "Arthur-Hoffmann-/Richard-Lehmann-Straße",
      "network": "Mitteldeutscher Verkehrsverbund",
      "network:short": "MDV",
      "public_transport": "stop_position",
      "ref": "0146",
      "route_ref": "70;N9",
      "wheelchair": "limited"
    }
  },
  {
    "type": "node",
    "id": 942702012,
    "lat": 51.3149715,
    "lon": 12.3787153,
    "tags": {
      "bus": "yes",
      "name": "Arthur-Hoffmann-/Richard-Lehmann-Straße",
      "network": "Mitteldeutscher Verkehrsverbund",
      "network:short": "MDV",
      "network:wikidata": "Q1742463",
      "operator": "Leipziger Verkehrsbetriebe",
      "public_transport": "stop_position",
      "ref": "0146",
      "route_ref": "70"
    }
  },
  {
    "type": "node",
    "id": 942742657,
    "lat": 51.3315275,
    "lon": 12.3798346,
    "tags": {
      "bus": "yes",
      "name": "Bayerischer Bahnhof",
      "network": "Mitteldeutscher Verkehrsverbund",
      "operator": "Leipziger Verkehrsbetriebe",
      "public_transport": "stop_position",
      "route_ref": "N8",
      "wheelchair": "no"
    }
  },
  {
    "type": "node",
    "id": 943248028,
    "lat": 51.3387438,
    "lon": 12.3629055,
    "tags": {
      "name": "Westplatz",
      "network": "Mitteldeutscher Verkehrsverbund",
      "network:short": "MDV",
      "network:wikidata": "Q1742463",
      "public_transport": "stop_position",
      "railway": "tram_stop",
      "ref": "0205",
      "tram": "yes",
      "wheelchair": "yes"
    }
  },
  {
    "type": "node",
    "id": 944020695,
    "lat": 51.3519618,
    "lon": 12.4257633,
    "tags": {
      "bus": "yes",
      "name": "Permoser-/Torgauer Straße",
      "network": "Mitteldeutscher Verkehrsverbund",
      "network:short": "MDV",
      "network:wikidata": "Q1742463",
      "network:wikipedia": "de:Mitteldeutscher Verkehrsverbund",
      "operator": "Leipziger Verkehrsbetriebe",
      "public_transport": "stop_position",
      "ref": "0550",
      "shelter": "yes",
      "wheelchair": "yes"
    }
  },
  {
    "type": "node",
    "id": 945163727,
    "lat": 51.3440145,
    "lon": 12.3802727,
    "tags": {
      "bus": "yes",
      "departures_board": "realtime",
      "description": "Hauptbahnhof, Steig B",
      "highway": "bus_stop",
      "local_ref": "B",
      "name": "Hauptbahnhof",
      "name:ja": "中央駅",
      "network": "Mitteldeutscher Verkehrsverbund",
      "network:short": "MDV",
      "network:wikidata": "Q1742463",
      "network:wikipedia": "de:Mitteldeutscher Verkehrsverbund",
      "operator": "LVB",
      "passenger_information_display": "yes",
      "public_transport": "stop_position",
      "railway": "tram_stop",
      "ref": "B",
      "tram": "yes",
      "uic_ref": "956291",
      "wheelchair": "yes"
    }
  },
  {
    "type": "node",
    "id": 952074561,
    "lat": 51.3233928,
    "lon": 12.3946733,
    "tags": {
      "bus": "yes",
      "name": "Deutsche Nationalbibliothek",
      "network": "Mitteldeutscher Verkehrsverbund",
      "operator": "Leipziger Verkehrsbetriebe",
      "public_transport": "stop_position",
      "ref": "0141",
      "wheelchair": "yes"
    }
  },
  {
    "type": "node",
    "id": 952074675,
    "lat": 51.3240128,
    "lon": 12.4009721,
    "tags": {
      "bus": "yes",
      "name": "Technisches Rathaus",
      "network": "Mitteldeutscher Verkehrsverbund",
      "operator": "Leipziger Verkehrsbetriebe",
      "public_transport": "stop_position",
      "ref": "0107",
      "wheelchair": "yes"
    }
  },
  {
    "type": "node",
    "id": 954530797,
    "lat": 51.3193798,
    "lon": 12.3413076,
    "tags": {
      "bus": "yes",
      "name": "Rödelstraße",
      "network": "Mitteldeutscher Verkehrsverbund",
      "operator": "Leipziger Verkehrsbetriebe",
      "public_transport": "stop_position",
      "tactile_paving": "yes",
      "wheelchair": "yes"
    }
  },
  {
    "type": "node",
    "id": 954530821,
    "lat": 51.318702,
    "lon": 12.3409359,
    "tags": {
      "bus": "yes",
      "name": "Rödelstraße",
      "network": "Mitteldeutscher Verkehrsverbund",
      "operator": "Leipziger Verkehrsbetriebe",
      "public_transport": "stop_position",
      "tactile_paving": "yes"
    }
  },
  {
    "type": "node",
    "id": 955977775,
    "lat": 51.3319528,
    "lon": 12.3385203,
    "tags": {
      "bus": "yes",
      "name": "Felsenkeller",
      "network": "MDV",
      "public_transport": "stop_position",
      "ref": "0228",
      "wheelchair": "limited"
    }
  },
  {
    "type": "node",
    "id": 966187421,
    "lat": 51.3232447,
    "lon": 12.3947805,
    "tags": {
      "bus": "yes",
      "name": "Deutsche Nationalbibliothek",
      "network": "Mitteldeutscher Verkehrsverbund",
      "operator": "Leipziger Verkehrsbetriebe",
      "public_transport": "stop_position",
      "ref": "0141",
      "wheelchair": "no"
    }
  },
  {
    "type": "node",
    "id": 966225395,
    "lat": 51.320318,
    "lon": 12.3735152,
    "tags": {
      "name": "Karl-Liebknecht-/Kurt-Eisner-Straße",
      "network": "Mitteldeutscher Verkehrsverbund",
      "network:short": "MDV",
      "network:wikidata": "Q1742463",
      "public_transport": "stop_position",
      "railway": "tram_stop",
      "ref": "0170",
      "tram": "yes",
      "wheelchair": "yes"
    }
  },
  {
    "type": "node",
    "id": 991501771,
    "lat": 51.3520985,
    "lon": 12.4257357,
    "tags": {
      "bus": "yes",
      "name": "Permoser-/Torgauer Straße",
      "network": "Mitteldeutscher Verkehrsverbund",
      "network:wikidata": "Q1742463",
      "network:wikipedia": "de:Mitteldeutscher Verkehrsverbund",
      "operator": "Leipziger Verkehrsbetriebe",
      "public_transport": "stop_position",
      "ref": "0550",
      "shelter": "yes",
      "wheelchair": "yes"
    }
  },
  {
    "type": "node",
    "id": 995749893,
    "lat": 51.3152155,
    "lon": 12.3733341,
    "tags": {
      "name": "Richard-Lehmann-Straße, HTWK",
      "network": "Mitteldeutscher Verkehrsverbund",
      "network:short": "MDV",
      "network:wikidata": "Q1742463",
      "operator": "LVB",
      "public_transport": "stop_position",
      "railway": "tram_stop",
      "ref": "0171",
      "tram": "yes",
      "wheelchair": "yes"
    }
  },
  {
    "type": "node",
    "id": 995771853,
    "lat": 51.3428156,
    "lon": 12.3830902,
    "tags": {
      "alt_name": "Wintergartenstraße/Hauptbahnhof Gleis 8",
      "local_ref": "H",
      "name": "Hauptbahnhof, Wintergartenstraße",
      "network": "Mitteldeutscher Verkehrsverbund",
      "network:short": "MDV",
      "network:wikidata": "Q1742463",
      "old_name": "Wintergartenstraße/Hauptbahnhof",
      "passenger_information_display": "yes",
      "public_transport": "stop_position",
      "railway": "tram_stop",
      "ref": "0010",
      "source:ref": "survey",
      "tram": "yes",
      "uic_ref": "955524",
      "wheelchair": "yes"
    }
  },
  {
    "type": "node",
    "id": 1001746085,
    "lat": 51.3139812,
    "lon": 12.3038386,
    "tags": {
      "bus": "yes",
      "name": "Schönauer/Ratzelstraße",
      "network": "Mitteldeutscher Verkehrsverbund",
      "operator": "Leipziger Verkehrsbetriebe",
      "public_transport": "stop_position",
      "tactile_paving": "yes",
      "wheelchair": "yes"
    }
  },
  {
    "type": "node",
    "id": 1003615140,
    "lat": 51.3202798,
    "lon": 12.2816735,
    "tags": {
      "bus": "yes",
      "name": "Am Kirschberg",
      "network": "Mitteldeutscher Verkehrsverbund",
      "operator": "Leipziger Verkehrsbetriebe",
      "public_transport": "stop_position",
      "ref": "0297",
      "tactile_paving": "yes"
    }
  },
  {
    "type": "node",
    "id": 1003615149,
    "lat": 51.3149571,
    "lon": 12.3021627,
    "tags": {
      "bus": "yes",
      "name": "Schönauer/Ratzelstraße",
      "network": "Mitteldeutscher Verkehrsverbund",
      "operator": "Leipziger Verkehrsbetriebe",
      "public_transport": "stop_position",
      "tactile_paving": "no"
    }
  },
  {
    "type": "node",
    "id": 1014465989,
    "lat": 51.366529,
    "lon": 12.3757434,
    "tags": {
      "name": "Virchow-/Coppistraße",
      "network": "Mitteldeutscher Verkehrsverbund (MDV)",
      "operator": "Leipziger Verkehrsbetriebe",
      "public_transport": "stop_position",
      "railway": "tram_stop",
      "ref": "0603",
      "tram": "yes",
      "wheelchair": "no"
    }
  },
  {
    "type": "node",
    "id": 1014466026,
    "lat": 51.3669601,
    "lon": 12.3754232,
    "tags": {
      "bus": "yes",
      "local_ref": "0603",
      "name": "Virchow-/Coppistraße",
      "network": "Mitteldeutscher Vekehrsverbund",
      "operator": "Leipziger Verkehrsbetriebe",
      "public_transport": "stop_position",
      "route_ref": "90",
      "tactile_paving": "yes"
    }
  },
  {
    "type": "node",
    "id": 1024866142,
    "lat": 51.30446,
    "lon": 12.4253046,
    "tags": {
      "bus": "yes",
      "name": "Probstheida",
      "network": "Mitteldeutscher Verkehrsverbund",
      "operator": "Leipziger Verkehrsbetriebe",
      "public_transport": "stop_position",
      "tactile_paving": "yes",
      "wheelchair": "limited"
    }
  },
  {
    "type": "node",
    "id": 1055744085,
    "lat": 51.3416631,
    "lon": 12.3572336,
    "tags": {
      "bench": "no",
      "bin": "no",
      "bus": "yes",
      "highway": "bus_stop",
      "kerb": "raised",
      "kerb:approach_aid": "no",
      "lit": "yes",
      "name": "Waldplatz",
      "network": "Mitteldeutscher Verkehrsverbund",
      "network:short": "MDV",
      "network:wikidata": "Q1742463",
      "operator": "Leipziger Verkehrsbetriebe",
      "passenger_information_display": "no",
      "public_transport": "platform",
      "ref": "0245",
      "route_ref": "E;N2;N3;N4;131",
      "shelter": "yes",
      "tactile_paving": "yes",
      "wheelchair": "yes"
    }
  },
  {
    "type": "node",
    "id": 1055744270,
    "lat": 51.3417172,
    "lon": 12.3572065,
    "tags": {
      "bus": "yes",
      "name": "Waldplatz",
      "network": "MDV",
      "network:wikidata": "Q1742463",
      "network:wikipedia": "de:Mitteldeutscher Verkehrsverbund",
      "public_transport": "stop_position",
      "ref": "0245",
      "wheelchair": "yes"
    }
  },
  {
    "type": "node",
    "id": 1107498154,
    "lat": 51.3604049,
    "lon": 12.4433279,
    "tags": {
      "bus": "yes",
      "name": "Hohentichelnstraße",
      "network": "MDV",
      "operator": "LVB",
      "public_transport": "stop_position",
      "ref": "0066",
      "tactile_paving": "yes"
    }
  },
  {
    "type": "node",
    "id": 1129934820,
    "lat": 51.3114135,
    "lon": 12.3731171,
    "tags": {
      "bus": "yes",
      "name": "Connewitzer Kreuz",
      "network": "MDV",
      "operator": "Leipziger Verkehrsbetriebe",
      "public_transport": "stop_position",
      "ref": "0172",
      "route_ref": "107",
      "wheelchair": "limited"
    }
  },
  {
    "type": "node",
    "id": 1163039472,
    "lat": 51.3313273,
    "lon": 12.3194215,
    "tags": {
      "bus": "yes",
      "name": "Lindenau, Bushof",
      "network": "Mitteldeutscher Verkehrsverbund",
      "operator": "Leipziger Verkehrsbetriebe",
      "public_transport": "stop_position",
      "ref": "0281",
      "tactile_paving": "yes",
      "wheelchair": "yes"
    }
  },
  {
    "type": "node",
    "id": 1163056737,
    "lat": 51.3231138,
    "lon": 12.2883572,
    "tags": {
      "bus": "yes",
      "name": "Schönauer Ring",
      "network": "Mitteldeutscher Verkehrsverbund",
      "operator": "Leipziger Verkehrsbetriebe",
      "public_transport": "stop_position",
      "tactile_paving": "yes"
    }
  },
  {
    "type": "node",
    "id": 1221687152,
    "lat": 51.3514314,
    "lon": 12.4071123,
    "tags": {
      "bench": "yes",
      "bin": "yes",
      "bus": "yes",
      "highway": "bus_stop",
      "lit": "yes",
      "name": "Stannebeinplatz",
      "network": "Mitteldeutscher Verkehrsverbund",
      "network:short": "MDV",
      "network:wikidata": "Q1742463",
      "operator": "Leipziger Verkehrsbetriebe",
      "public_transport": "platform",
      "route_ref": "77, 90",
      "shelter": "yes",
      "tactile_paving": "yes"
    }
  },
  {
    "type": "node",
    "id": 1221687158,
    "lat": 51.3513457,
    "lon": 12.4071646,
    "tags": {
      "bus": "yes",
      "name": "Stannebeinplatz",
      "network": "Mitteldeutscher Verkehrsverbund",
      "operator": "Leipziger Verkehrsbetriebe",
      "public_transport": "stop_position",
      "tactile_paving": "yes"
    }
  },
  {
    "type": "node",
    "id": 1221687166,
    "lat": 51.3514093,
    "lon": 12.4067101,
    "tags": {
      "bus": "yes",
      "name": "Stannebeinplatz",
      "network": "Mitteldeutscher Verkehrsverbund",
      "operator": "Leipziger Verkehrsbetriebe",
      "public_transport": "stop_position",
      "tactile_paving": "yes"
    }
  },
  {
    "type": "node",
    "id": 1221687181,
    "lat": 51.3538571,
    "lon": 12.4115864,
    "tags": {
      "bench": "yes",
      "bin": "yes",
      "bus": "yes",
      "highway": "bus_stop",
      "lit": "yes",
      "local_ref": "0036",
      "name": "Stöckelstraße",
      "network": "Mitteldeutscher Verkehrsverbund",
      "operator": "Leipziger Verkehrsbetriebe",
      "public_transport": "platform",
      "shelter": "yes",
      "tactile_paving": "no",
      "tram": "yes",
      "wheelchair": "no"
    }
  },
  {
    "type": "node",
    "id": 1221687334,
    "lat": 51.3511459,
    "lon": 12.4071776,
    "tags": {
      "bus": "yes",
      "local_ref": "0035",
      "name": "Stannebeinplatz",
      "network": "MDV",
      "public_transport": "stop_position"
    }
  },
  {
    "type": "node",
    "id": 1304562846,
    "lat": 51.305887,
    "lon": 12.3958321,
    "tags": {
      "bench": "no",
      "bin": "no",
      "description": "nur bei Umleitungen",
      "name": "An der Märchenwiese",
      "network": "Mitteldeutscher Verkehrsverbund",
      "operator": "Leipziger Verkehrsbetriebe",
      "public_transport": "stop_position",
      "railway": "tram_stop",
      "shelter": "no",
      "tactile_paving": "no",
      "tram": "yes",
      "wheelchair": "no"
    }
  },
  {
    "type": "node",
    "id": 1371242236,
    "lat": 51.3041142,
    "lon": 12.4257336,
    "tags": {
      "bus": "yes",
      "name": "Probstheida",
      "network": "Mitteldeutscher Verkehrsverbund",
      "network:short": "MDV",
      "network:wikidata": "Q1742463",
      "operator": "Leipziger Verkehrsbetriebe",
      "public_transport": "stop_position",
      "railway": "tram_stop",
      "ref": "0129",
      "tram": "yes",
      "wheelchair": "yes"
    }
  },
  {
    "type": "node",
    "id": 1380455365,
    "lat": 51.3500806,
    "lon": 12.3767071,
    "tags": {
      "name": "Wilhelm-Liebknecht-Platz",
      "network": "Mitteldeutscher Verkehrsverbund",
      "network:short": "MDV",
      "network:wikidata": "Q1742463",
      "operator": "Leipziger Verkehrsbetriebe",
      "public_transport": "stop_position",
      "railway": "tram_stop",
      "ref": "0013",
      "tram": "yes",
      "wheelchair": "yes"
    }
  },
  {
    "type": "node",
    "id": 1390346741,
    "lat": 51.3841049,
    "lon": 12.3813434,
    "tags": {
      "bus": "yes",
      "description": "SEV-Haltestelle",
      "name": "Klinikum St. Georg",
      "network": "Mitteldeutscher Verkehrsverbund",
      "operator": "Leipziger Verkehrsbetriebe",
      "public_transport": "stop_position",
      "ref": "0411",
      "tactile_paving": "no"
    }
  },
  {
    "type": "node",
    "id": 1395169568,
    "lat": 51.3439474,
    "lon": 12.3802043,
    "tags": {
      "bus": "yes",
      "departures_board": "realtime",
      "description": "Hauptbahnhof, Steig C",
      "highway": "bus_stop",
      "local_ref": "C",
      "name": "Hauptbahnhof",
      "name:ja": "中央駅",
      "network": "Mitteldeutscher Verkehrsverbund",
      "network:short": "MDV",
      "network:wikidata": "Q1742463",
      "network:wikipedia": "de:Mitteldeutscher Verkehrsverbund",
      "passenger_information_display": "yes",
      "public_transport": "stop_position",
      "railway": "tram_stop",
      "ref": "C",
      "tram": "yes",
      "uic_ref": "956291",
      "wheelchair": "yes"
    }
  },
  {
    "type": "node",
    "id": 1395169569,
    "lat": 51.3440444,
    "lon": 12.3803031,
    "tags": {
      "bus": "yes",
      "departures_board": "realtime",
      "description": "Hauptbahnhof, Steig A",
      "highway": "bus_stop",
      "local_ref": "A",
      "name": "Hauptbahnhof",
      "name:en": "Main Station",
      "name:ja": "中央駅",
      "network": "Mitteldeutscher Verkehrsverbund",
      "network:short": "MDV",
      "network:wikidata": "Q1742463",
      "network:wikipedia": "de:Mitteldeutscher Verkehrsverbund",
      "passenger_information_display": "yes",
      "public_transport": "stop_position",
      "railway": "tram_stop",
      "ref": "A",
      "tram": "yes",
      "uic_ref": "956291",
      "wheelchair": "yes"
    }
  },
  {
    "type": "node",
    "id": 1395246509,
    "lat": 51.3540141,
    "lon": 12.3887565,
    "tags": {
      "bench": "no",
      "bin": "no",
      "covered": "no",
      "name": "Wittenberger Straße",
      "network": "Mitteldeutscher Verkehrsverbund",
      "network:short": "MDV",
      "network:wikidata": "Q1742463",
      "note": "nur bei Umleitung",
      "operator": "Leipziger Verkehrsbetriebe",
      "passenger_information_display": "no",
      "public_transport": "stop_position",
      "railway": "tram_stop",
      "shelter": "no",
      "tactile_paving": "no",
      "tram": "yes",
      "wheelchair": "no"
    }
  },
  {
    "type": "node",
    "id": 1395246566,
    "lat": 51.3549507,
    "lon": 12.3909496,
    "tags": {
      "name": "Apelstraße, Historischer Straßenbahnhof",
      "network": "Mitteldeutscher Verkehrsverbund",
      "network:short": "MDV",
      "network:wikidata": "Q1742463",
      "public_transport": "stop_position",
      "railway": "tram_stop",
      "ref": "0015",
      "tram": "yes"
    }
  },
  {
    "type": "node",
    "id": 1411379270,
    "lat": 51.3205101,
    "lon": 12.2827873,
    "tags": {
      "name": "Am Kirschberg",
      "network": "Mitteldeutscher Verkehrsverbund",
      "network:short": "MDV",
      "network:wikidata": "Q1742463",
      "public_transport": "stop_position",
      "railway": "tram_stop",
      "ref": "0297",
      "tram": "yes",
      "wheelchair": "yes"
    }
  },
  {
    "type": "node",
    "id": 1411379271,
    "lat": 51.3258309,
    "lon": 12.302032,
    "tags": {
      "name": "Grünauer Allee",
      "network": "Mitteldeutscher Verkehrsverbund",
      "network:short": "MDV",
      "network:wikidata": "Q1742463",
      "public_transport": "stop_position",
      "railway": "tram_stop",
      "ref": "0284",
      "tram": "yes",
      "wheelchair": "yes"
    }
  },
  {
    "type": "node",
    "id": 1411379275,
    "lat": 51.3219202,
    "lon": 12.2674368,
    "tags": {
      "name": "Jupiterstraße",
      "network": "Mitteldeutscher Verkehrsverbund",
      "network:short": "MDV",
      "network:wikidata": "Q1742463",
      "operator": "Lepziger Verkehrsbetriebe",
      "public_transport": "stop_position",
      "railway": "tram_stop",
      "ref": "0300",
      "tactile_paving": "yes",
      "tram": "yes",
      "wheelchair": "yes"
    }
  },
  {
    "type": "node",
    "id": 1411379284,
    "lat": 51.3185551,
    "lon": 12.2747779,
    "tags": {
      "name": "Kiewer Straße",
      "network": "Mitteldeutscher Verkehrsverbund",
      "network:short": "MDV",
      "network:wikidata": "Q1742463",
      "public_transport": "stop_position",
      "railway": "tram_stop",
      "ref": "0298",
      "tram": "yes",
      "wheelchair": "yes"
    }
  },
  {
    "type": "node",
    "id": 1411379289,
    "lat": 51.3247728,
    "lon": 12.262813,
    "tags": {
      "name": "Miltitz",
      "network": "MDV",
      "operator": "LVB",
      "public_transport": "stop_position",
      "railway": "tram_stop",
      "ref": "0302",
      "tram": "yes",
      "wheelchair": "yes"
    }
  },
  {
    "type": "node",
    "id": 1411379292,
    "lat": 51.3247696,
    "lon": 12.295347,
    "tags": {
      "name": "Parkallee",
      "network": "Mitteldeutscher Verkehrsverbund",
      "network:short": "MDV",
      "network:wikidata": "Q1742463",
      "public_transport": "stop_position",
      "railway": "tram_stop",
      "ref": "0285",
      "tram": "yes",
      "wheelchair": "yes"
    }
  },
  {
    "type": "node",
    "id": 1411379301,
    "lat": 51.3179948,
    "lon": 12.267805,
    "tags": {
      "name": "Plovdiver Straße",
      "network": "Mitteldeutscher Verkehrsverbund",
      "network:short": "MDV",
      "network:wikidata": "Q1742463",
      "operator": "LVB",
      "public_transport": "stop_position",
      "railway": "tram_stop",
      "ref": "0299",
      "tram": "yes",
      "wheelchair": "yes"
    }
  },
  {
    "type": "node",
    "id": 1411379463,
    "lat": 51.3233399,
    "lon": 12.2641732,
    "tags": {
      "name": "Saturnstraße",
      "network": "Mitteldeutscher Verkehrsverbund",
      "network:short": "MDV",
      "network:wikidata": "Q1742463",
      "operator": "LVB",
      "public_transport": "stop_position",
      "railway": "tram_stop",
      "ref": "0301",
      "tram": "yes",
      "wheelchair": "yes"
    }
  },
  {
    "type": "node",
    "id": 1411379573,
    "lat": 51.3278852,
    "lon": 12.3084414,
    "tags": {
      "name": "Saarländer Straße",
      "network": "Mitteldeutscher Verkehrsverbund",
      "network:short": "MDV",
      "network:wikidata": "Q1742463",
      "public_transport": "stop_position",
      "railway": "tram_stop",
      "ref": "0502",
      "source:name": "survey",
      "source:ref": "survey",
      "tram": "yes",
      "wheelchair": "yes"
    }
  },
  {
    "type": "node",
    "id": 1411379578,
    "lat": 51.3227455,
    "lon": 12.287816,
    "tags": {
      "name": "Schönauer Ring",
      "network": "Mitteldeutscher Verkehrsverbund",
      "network:short": "MDV",
      "network:wikidata": "Q1742463",
      "operator": "Leipziger Verkehrsbetriebe",
      "public_transport": "stop_position",
      "railway": "tram_stop",
      "tactile_paving": "yes",
      "tram": "yes",
      "wheelchair": "yes"
    }
  },
  {
    "type": "node",
    "id": 1433439485,
    "lat": 51.3455194,
    "lon": 12.4151369,
    "tags": {
      "name": "Torgauer Platz",
      "network": "Mitteldeutscher Verkehrsverbund",
      "network:short": "MDV",
      "network:wikidata": "Q1742463",
      "operator": "Leipziger Verkehrsbetriebe",
      "public_transport": "stop_position",
      "railway": "tram_stop",
      "ref": "0049",
      "tram": "yes",
      "wheelchair": "yes"
    }
  },
  {
    "type": "node",
    "id": 1433439508,
    "lat": 51.3482979,
    "lon": 12.4198841,
    "tags": {
      "name": "Volksgarten",
      "network": "Mitteldeutscher Verkehrsverbund",
      "network:short": "MDV",
      "network:wikidata": "Q1742463",
      "public_transport": "stop_position",
      "railway": "tram_stop",
      "ref": "0051",
      "tram": "yes",
      "wheelchair": "yes"
    }
  },
  {
    "type": "node",
    "id": 1493108927,
    "lat": 51.322818,
    "lon": 12.2878175,
    "tags": {
      "amenity": "taxi",
      "capacity": "4"
    }
  },
  {
    "type": "node",
    "id": 1524937984,
    "lat": 51.3205539,
    "lon": 12.3744012,
    "tags": {
      "bus": "yes",
      "name": "Karl-Liebknecht-/Kurt-Eisner-Straße",
      "network": "MDV",
      "public_transport": "stop_position",
      "ref": "0190",
      "wheelchair": "limited"
    }
  },
  {
    "type": "node",
    "id": 1622699362,
    "lat": 51.3795147,
    "lon": 12.4908715,
    "tags": {
      "name": "Taucha, An der Bürgerruhe",
      "network": "Mitteldeutscher Verkehrsverbund",
      "network:short": "MDV",
      "network:wikidata": "Q1742463",
      "operator": "Leipziger Verkehrsbetriebe",
      "public_transport": "stop_position",
      "railway": "tram_stop",
      "ref": "0063",
      "tactile_paving": "no",
      "tram": "yes",
      "wheelchair": "no"
    }
  },
  {
    "type": "node",
    "id": 1629793191,
    "lat": 51.3063946,
    "lon": 12.260001,
    "tags": {
      "name": "Lausen",
      "network": "Mitteldeutscher Verkehrsverbund",
      "network:short": "MDV",
      "network:wikidata": "Q1742463",
      "operator": "Leipziger Verkehrsbetriebe",
      "public_transport": "stop_position",
      "railway": "tram_stop",
      "ref": "222",
      "tram": "yes"
    }
  },
  {
    "type": "node",
    "id": 1629811732,
    "lat": 51.311647,
    "lon": 12.2825915,
    "tags": {
      "name": "Ratzelbogen",
      "network": "Mitteldeutscher Verkehrsverbund",
      "network:short": "MDV",
      "network:wikidata": "Q1742463",
      "public_transport": "stop_position",
      "railway": "tram_stop",
      "ref": "0218",
      "tram": "yes",
      "wheelchair": "yes"
    }
  },
  {
    "type": "node",
    "id": 1632175170,
    "lat": 51.3391175,
    "lon": 12.3806535,
    "tags": {
      "bus": "yes",
      "name": "Augustusplatz",
      "name:ja": "アウグストゥス広場",
      "network": "Mitteldeutscher Verkehrsverbund",
      "network:short": "MDV",
      "network:wikidata": "Q1742463",
      "operator": "Leipziger Verkehrsbetriebe",
      "passenger_information_display": "yes",
      "public_transport": "stop_position",
      "railway": "tram_stop",
      "toilets:wheelchair": "yes",
      "tram": "yes",
      "wheelchair": "limited"
    }
  },
  {
    "type": "node",
    "id": 1654105237,
    "lat": 51.3348483,
    "lon": 12.3783126,
    "tags": {
      "name": "Roßplatz",
      "network": "Mitteldeutscher Verkehrsverbund",
      "network:short": "MDV",
      "network:wikidata": "Q1742463",
      "passenger_information_display": "yes",
      "public_transport": "stop_position",
      "railway": "tram_stop",
      "ref": "0008",
      "shelter": "yes",
      "tram": "yes",
      "wheelchair": "yes"
    }
  },
  {
    "type": "node",
    "id": 1654105601,
    "lat": 51.3381177,
    "lon": 12.3637007,
    "tags": {
      "name": "Westplatz",
      "network": "Mitteldeutscher Verkehrsverbund",
      "network:short": "MDV",
      "network:wikidata": "Q1742463",
      "public_transport": "stop_position",
      "railway": "tram_stop",
      "ref": "0205",
      "tram": "yes",
      "wheelchair": "yes"
    }
  },
  {
    "type": "node",
    "id": 1655510063,
    "lat": 51.3434832,
    "lon": 12.3859828,
    "tags": {
      "bus": "yes",
      "name": "Hofmeisterstraße",
      "network": "Mitteldeutscher Verkehrsverbund",
      "network:short": "MDV",
      "network:wikidata": "Q1742463",
      "public_transport": "stop_position",
      "railway": "tram_stop",
      "ref": "0030",
      "shelter": "yes",
      "tram": "yes",
      "wheelchair": "limited"
    }
  },
  {
    "type": "node",
    "id": 1696100929,
    "lat": 51.3531974,
    "lon": 12.387485,
    "tags": {
      "name": "Wittenberger Straße",
      "network": "Mitteldeutscher Verkehrsverbund",
      "network:short": "MDV",
      "network:wikidata": "Q1742463",
      "public_transport": "stop_position",
      "railway": "tram_stop",
      "ref": "0014",
      "tram": "yes",
      "wheelchair": "yes"
    }
  },